{
"type": "FeatureCollection",
"name": "hospitals_utm",
"crs": { "type": "name", "properties": { "name": "urn:ogc:def:crs:EPSG::32630" } },
"features": [
{ "type": "Feature", "properties": { "OBJECTID": 1, "Region": "Ashanti", "District": "Offinso North", "FacilityNa": "A.M.E Zion Clinic", "Type": "Clinic", "Town": "Afrancho", "Ownership": "CHAG", "latitude": 7.40801, "longitude": -1.96317, "index_right": 1.0, "NAME_1": "Ashanti", "x_utm": 614422.6615150295, "y_utm": 818986.85090021126 }, "geometry": { "type": "Point", "coordinates": [ 614422.661515029496513, 818986.850900211255066 ] } },
{ "type": "Feature", "properties": { "OBJECTID": 2, "Region": "Ashanti", "District": "Bekwai Municipal", "FacilityNa": "Abenkyiman Clinic", "Type": "Clinic", "Town": "Anwiankwanta", "Ownership": "Private", "latitude": 6.46312, "longitude": -1.58592, "index_right": 1.0, "NAME_1": "Ashanti", "x_utm": 656373.86273012473, "y_utm": 714616.54727460153 }, "geometry": { "type": "Point", "coordinates": [ 656373.862730124732479, 714616.547274601529352 ] } },
{ "type": "Feature", "properties": { "OBJECTID": 3, "Region": "Ashanti", "District": "Adansi North", "FacilityNa": "Aboabo Health Centre", "Type": "Health Centre", "Town": "Aboabo No 2", "Ownership": "Government", "latitude": 6.22393, "longitude": -1.34982, "index_right": 1.0, "NAME_1": "Ashanti", "x_utm": 682573.39529172226, "y_utm": 688243.47694230999 }, "geometry": { "type": "Point", "coordinates": [ 682573.39529172226321, 688243.476942309993319 ] } },
{ "type": "Feature", "properties": { "OBJECTID": 4, "Region": "Ashanti", "District": "Afigya-Kwabre", "FacilityNa": "Aboabogya Health Centre", "Type": "Health Centre", "Town": "Aboabogya", "Ownership": "Government", "latitude": 6.84177, "longitude": -1.61098, "index_right": 1.0, "NAME_1": "Ashanti", "x_utm": 653484.49029640597, "y_utm": 756478.81152808957 }, "geometry": { "type": "Point", "coordinates": [ 653484.490296405972913, 756478.811528089572676 ] } },
{ "type": "Feature", "properties": { "OBJECTID": 5, "Region": "Ashanti", "District": "Kwabre", "FacilityNa": "Aboaso Health Centre", "Type": "Health Centre", "Town": "Aboaso", "Ownership": "Government", "latitude": 6.84177, "longitude": -1.61098, "index_right": 1.0, "NAME_1": "Ashanti", "x_utm": 653484.49029640597, "y_utm": 756478.81152808957 }, "geometry": { "type": "Point", "coordinates": [ 653484.490296405972913, 756478.811528089572676 ] } },
{ "type": "Feature", "properties": { "OBJECTID": 6, "Region": "Ashanti", "District": "Offinso North", "FacilityNa": "Aboffour Health Centre", "Type": "Health Centre", "Town": "Aboffour", "Ownership": "Government", "latitude": 7.12986, "longitude": -1.73294, "index_right": 1.0, "NAME_1": "Ashanti", "x_utm": 639920.16037288413, "y_utm": 788296.52861283452 }, "geometry": { "type": "Point", "coordinates": [ 639920.160372884129174, 788296.528612834517844 ] } },
{ "type": "Feature", "properties": { "OBJECTID": 7, "Region": "Ashanti", "District": "Atwima-Nwabiagya", "FacilityNa": "Abuakwa Maternity Home", "Type": "Maternity Home", "Town": "Abuakwa", "Ownership": "Private", "latitude": 7.0, "longitude": -2.0, "index_right": 1.0, "NAME_1": "Ashanti", "x_utm": 610456.50533668301, "y_utm": 773866.34643519449 }, "geometry": { "type": "Point", "coordinates": [ 610456.505336683010682, 773866.346435194485821 ] } },
{ "type": "Feature", "properties": { "OBJECTID": 8, "Region": "Ashanti", "District": "Atwima-Kwanwoma", "FacilityNa": "Aburaso Methodist clinic", "Type": "Clinic", "Town": "Aburaso", "Ownership": "CHAG", "latitude": 6.66133, "longitude": -1.67662, "index_right": 1.0, "NAME_1": "Ashanti", "x_utm": 646284.2699740415, "y_utm": 736506.33225296217 }, "geometry": { "type": "Point", "coordinates": [ 646284.269974041497335, 736506.332252962165512 ] } },
{ "type": "Feature", "properties": { "OBJECTID": 9, "Region": "Ashanti", "District": "Ejisu-Juaben Municipal", "FacilityNa": "Achiase Health Centre", "Type": "Health Centre", "Town": "Achiase", "Ownership": "Government", "latitude": 6.45543, "longitude": -1.31004, "index_right": 1.0, "NAME_1": "Ashanti", "x_utm": 686892.42554555973, "y_utm": 713859.16959002637 }, "geometry": { "type": "Point", "coordinates": [ 686892.425545559730381, 713859.169590026373044 ] } },
{ "type": "Feature", "properties": { "OBJECTID": 10, "Region": "Ashanti", "District": "Mampong Municipal", "FacilityNa": "Adidwan Health Centre", "Type": "Health Centre", "Town": "Adidwan", "Ownership": "Government", "latitude": 7.25163, "longitude": -1.40278, "index_right": 1.0, "NAME_1": "Ashanti", "x_utm": 676340.65879577468, "y_utm": 801876.15452305053 }, "geometry": { "type": "Point", "coordinates": [ 676340.658795774681494, 801876.154523050528951 ] } },
{ "type": "Feature", "properties": { "OBJECTID": 11, "Region": "Ashanti", "District": "Amansie West", "FacilityNa": "Adimposo CHPS", "Type": "CHPS", "Town": "Adimposo", "Ownership": "Government", "latitude": 6.33659, "longitude": -1.92588, "index_right": 1.0, "NAME_1": "Ashanti", "x_utm": 618804.13958481431, "y_utm": 700535.10874761781 }, "geometry": { "type": "Point", "coordinates": [ 618804.13958481431473, 700535.108747617807239 ] } },
{ "type": "Feature", "properties": { "OBJECTID": 12, "Region": "Ashanti", "District": "Asante-Akim North Municipal", "FacilityNa": "Adom Hospital", "Type": "Hospital", "Town": "Akratiebesa", "Ownership": "Private", "latitude": 6.61879, "longitude": -1.19202, "index_right": 1.0, "NAME_1": "Ashanti", "x_utm": 699883.42516669945, "y_utm": 731971.35025142867 }, "geometry": { "type": "Point", "coordinates": [ 699883.425166699453257, 731971.350251428666525 ] } },
{ "type": "Feature", "properties": { "OBJECTID": 13, "Region": "Ashanti", "District": "Ahafo-Ano South", "FacilityNa": "Adom Maternity Home", "Type": "Maternity Home", "Town": "Adinyana", "Ownership": "Private", "latitude": 6.88364, "longitude": -1.87334, "index_right": 1.0, "NAME_1": "Ashanti", "x_utm": 624479.16945310053, "y_utm": 761032.40256886603 }, "geometry": { "type": "Point", "coordinates": [ 624479.169453100534156, 761032.402568866033107 ] } },
{ "type": "Feature", "properties": { "OBJECTID": 14, "Region": "Ashanti", "District": "Afigya-Kwabre", "FacilityNa": "Adwumakase Kese Health Centre", "Type": "Health Centre", "Town": "Adwumakase Kese", "Ownership": "Government", "latitude": 6.80813, "longitude": -1.53933, "index_right": 1.0, "NAME_1": "Ashanti", "x_utm": 661414.60996386595, "y_utm": 752782.33541993564 }, "geometry": { "type": "Point", "coordinates": [ 661414.609963865950704, 752782.335419935639948 ] } },
{ "type": "Feature", "properties": { "OBJECTID": 15, "Region": "Ashanti", "District": "Sekyere South", "FacilityNa": "Afamaso Maternity Home", "Type": "Maternity Home", "Town": "Afamaso", "Ownership": "Private", "latitude": 6.94912, "longitude": -1.50873, "index_right": 1.0, "NAME_1": "Ashanti", "x_utm": 664748.25907689321, "y_utm": 768383.7063000194 }, "geometry": { "type": "Point", "coordinates": [ 664748.259076893213205, 768383.706300019402988 ] } },
{ "type": "Feature", "properties": { "OBJECTID": 16, "Region": "Ashanti", "District": "Sekyere Central", "FacilityNa": "Aframso Health Centre", "Type": "Health Centre", "Town": "Aframso No.3", "Ownership": "Government", "latitude": 7.14472, "longitude": -1.12162, "index_right": 1.0, "NAME_1": "Ashanti", "x_utm": 707440.67926558666, "y_utm": 790170.24653139815 }, "geometry": { "type": "Point", "coordinates": [ 707440.679265586659312, 790170.246531398152001 ] } },
{ "type": "Feature", "properties": { "OBJECTID": 17, "Region": "Ashanti", "District": "Afigya-Kwabre", "FacilityNa": "Afrancho Health Centre", "Type": "Health Centre", "Town": "Afrancho", "Ownership": "Government", "latitude": 6.81527, "longitude": -1.59589, "index_right": 1.0, "NAME_1": "Ashanti", "x_utm": 655160.77599930158, "y_utm": 753553.33231609687 }, "geometry": { "type": "Point", "coordinates": [ 655160.77599930157885, 753553.332316096872091 ] } },
{ "type": "Feature", "properties": { "OBJECTID": 18, "Region": "Ashanti", "District": "Asante-Akim North Municipal", "FacilityNa": "Agogo Presby Hospital", "Type": "Hospital", "Town": "Agogo", "Ownership": "CHAG", "latitude": 6.79618, "longitude": -1.08529, "index_right": 1.0, "NAME_1": "Ashanti", "x_utm": 711610.66412297019, "y_utm": 751635.90442445781 }, "geometry": { "type": "Point", "coordinates": [ 711610.664122970192693, 751635.904424457810819 ] } },
{ "type": "Feature", "properties": { "OBJECTID": 19, "Region": "Ashanti", "District": "Sekyere South", "FacilityNa": "Agona Health Centre", "Type": "Health Centre", "Town": "Agona", "Ownership": "Government", "latitude": 6.93605, "longitude": -1.49759, "index_right": 1.0, "NAME_1": "Ashanti", "x_utm": 665983.8089508086, "y_utm": 766942.2727486979 }, "geometry": { "type": "Point", "coordinates": [ 665983.808950808597729, 766942.272748697898351 ] } },
{ "type": "Feature", "properties": { "OBJECTID": 20, "Region": "Ashanti", "District": "Ejisu-Juaben Municipal", "FacilityNa": "Agyenkwa Clinic", "Type": "Clinic", "Town": "Hwireso", "Ownership": "Private", "latitude": 6.67522, "longitude": -1.38159, "index_right": 1.0, "NAME_1": "Ashanti", "x_utm": 678899.09020001197, "y_utm": 738139.56549727335 }, "geometry": { "type": "Point", "coordinates": [ 678899.090200011967681, 738139.565497273346409 ] } },
{ "type": "Feature", "properties": { "OBJECTID": 21, "Region": "Ashanti", "District": "Obuasi Municipal", "FacilityNa": "Agyenkwa Clinic", "Type": "Clinic", "Town": "New  Estate-Obuasi", "Ownership": "Private", "latitude": 6.20898, "longitude": -1.67103, "index_right": 1.0, "NAME_1": "Ashanti", "x_utm": 647032.34017716872, "y_utm": 686490.21114887984 }, "geometry": { "type": "Point", "coordinates": [ 647032.340177168720402, 686490.211148879840039 ] } },
{ "type": "Feature", "properties": { "OBJECTID": 22, "Region": "Ashanti", "District": "Atwima-Kwanwoma", "FacilityNa": "Ahenema kokoben Health Centre", "Type": "Health Centre", "Town": "Ahenema kokoben", "Ownership": "Government", "latitude": 6.62597, "longitude": -1.64978, "index_right": 1.0, "NAME_1": "Ashanti", "x_utm": 649262.31475907797, "y_utm": 732604.4333845526 }, "geometry": { "type": "Point", "coordinates": [ 649262.314759077969939, 732604.433384552598 ] } },
{ "type": "Feature", "properties": { "OBJECTID": 23, "Region": "Ashanti", "District": "Afigya-Kwabre", "FacilityNa": "Ahenkro Health Centre", "Type": "Health Centre", "Town": "Ahenkro", "Ownership": "Government", "latitude": 6.87155, "longitude": -1.64009, "index_right": 1.0, "NAME_1": "Ashanti", "x_utm": 650257.95178324869, "y_utm": 759762.578813878 }, "geometry": { "type": "Point", "coordinates": [ 650257.951783248689026, 759762.578813878004439 ] } },
{ "type": "Feature", "properties": { "OBJECTID": 24, "Region": "Ashanti", "District": "Sekyere East", "FacilityNa": "Ahmadiya Muslim Hospital", "Type": "Hospital", "Town": "Effiduase", "Ownership": "Private", "latitude": 6.84534, "longitude": -1.38366, "index_right": 1.0, "NAME_1": "Ashanti", "x_utm": 678607.72049999505, "y_utm": 756952.12972655823 }, "geometry": { "type": "Point", "coordinates": [ 678607.720499995048158, 756952.129726558225229 ] } },
{ "type": "Feature", "properties": { "OBJECTID": 25, "Region": "Ashanti", "District": "Bekwai Municipal", "FacilityNa": "Ahmadiyaa Mission Hospital", "Type": "Hospital", "Town": "Kokofu", "Ownership": "Private", "latitude": 6.50986, "longitude": -1.53649, "index_right": 1.0, "NAME_1": "Ashanti", "x_utm": 661826.23293090356, "y_utm": 719800.49529068451 }, "geometry": { "type": "Point", "coordinates": [ 661826.232930903555825, 719800.495290684513748 ] } },
{ "type": "Feature", "properties": { "OBJECTID": 26, "Region": "Ashanti", "District": "Bekwai Municipal", "FacilityNa": "Ahwene Memorial Hospital", "Type": "Hospital", "Town": "Bekwai", "Ownership": "Private", "latitude": 6.45491, "longitude": -1.57071, "index_right": 1.0, "NAME_1": "Ashanti", "x_utm": 658058.72593227937, "y_utm": 713713.4028841831 }, "geometry": { "type": "Point", "coordinates": [ 658058.725932279368863, 713713.402884183102287 ] } },
{ "type": "Feature", "properties": { "OBJECTID": 27, "Region": "Ashanti", "District": "Adansi South", "FacilityNa": "Aim High Clinic", "Type": "Clinic", "Town": "Subin Camp", "Ownership": "Private", "latitude": 5.96717, "longitude": -1.44993, "index_right": 1.0, "NAME_1": "Ashanti", "x_utm": 671576.2217390911, "y_utm": 659816.79164638487 }, "geometry": { "type": "Point", "coordinates": [ 671576.221739091095515, 659816.791646384866908 ] } },
{ "type": "Feature", "properties": { "OBJECTID": 28, "Region": "Ashanti", "District": "Sekyere East", "FacilityNa": "Akokuaso Health Centre", "Type": "Health Centre", "Town": "Akokuaso", "Ownership": "Government", "latitude": 6.85355, "longitude": -1.33583, "index_right": 1.0, "NAME_1": "Ashanti", "x_utm": 683891.2863701178, "y_utm": 757878.12965399283 }, "geometry": { "type": "Point", "coordinates": [ 683891.286370117799379, 757878.129653992829844 ] } },
{ "type": "Feature", "properties": { "OBJECTID": 29, "Region": "Ashanti", "District": "Bekwai Municipal", "FacilityNa": "Akomaa Memorial Hospital", "Type": "Hospital", "Town": "Kortwia", "Ownership": "CHAG", "latitude": 6.43966, "longitude": -1.53837, "index_right": 1.0, "NAME_1": "Ashanti", "x_utm": 661640.6451004917, "y_utm": 712037.21521133755 }, "geometry": { "type": "Point", "coordinates": [ 661640.645100491703488, 712037.215211337548681 ] } },
{ "type": "Feature", "properties": { "OBJECTID": 30, "Region": "Ashanti", "District": "Offinso North", "FacilityNa": "Akomadan Health Centre", "Type": "Health Centre", "Town": "Akomadan zongo", "Ownership": "Government", "latitude": 7.40581, "longitude": -1.96072, "index_right": 1.0, "NAME_1": "Ashanti", "x_utm": 614693.63672410406, "y_utm": 818744.23699707154 }, "geometry": { "type": "Point", "coordinates": [ 614693.636724104057066, 818744.236997071537189 ] } },
{ "type": "Feature", "properties": { "OBJECTID": 31, "Region": "Ashanti", "District": "Adansi North", "FacilityNa": "Akrofrom Clinic", "Type": "Clinic", "Town": "New Akrofrom", "Ownership": "Private", "latitude": 6.15348, "longitude": -1.47621, "index_right": 1.0, "NAME_1": "Ashanti", "x_utm": 668608.76339389523, "y_utm": 680411.00516794284 }, "geometry": { "type": "Point", "coordinates": [ 668608.763393895234913, 680411.0051679428434 ] } },
{ "type": "Feature", "properties": { "OBJECTID": 32, "Region": "Ashanti", "District": "Amansie Central", "FacilityNa": "Akrofrom Community Clinic", "Type": "Clinic", "Town": "Akrofrom", "Ownership": "Government", "latitude": 6.39651, "longitude": -1.60783, "index_right": 1.0, "NAME_1": "Ashanti", "x_utm": 653970.55311908189, "y_utm": 707244.39820138854 }, "geometry": { "type": "Point", "coordinates": [ 653970.553119081887417, 707244.398201388539746 ] } },
{ "type": "Feature", "properties": { "OBJECTID": 33, "Region": "Ashanti", "District": "Adansi South", "FacilityNa": "Akrofrom Health Centre", "Type": "Health Centre", "Town": "Akrofrom", "Ownership": "Government", "latitude": 6.12385, "longitude": -1.65387, "index_right": 1.0, "NAME_1": "Ashanti", "x_utm": 648954.96072532702, "y_utm": 677081.93823888898 }, "geometry": { "type": "Point", "coordinates": [ 648954.960725327022374, 677081.938238888978958 ] } },
{ "type": "Feature", "properties": { "OBJECTID": 34, "Region": "Ashanti", "District": "Adansi North", "FacilityNa": "Akrokerri Health Centre", "Type": "Health Centre", "Town": "Akrokerri", "Ownership": "Government", "latitude": 6.29513, "longitude": -1.63224, "index_right": 1.0, "NAME_1": "Ashanti", "x_utm": 651299.94345950335, "y_utm": 696027.10363248922 }, "geometry": { "type": "Point", "coordinates": [ 651299.943459503352642, 696027.103632489219308 ] } },
{ "type": "Feature", "properties": { "OBJECTID": 35, "Region": "Ashanti", "District": "Atwima-Nwabiagya", "FacilityNa": "Akropong Health Centre", "Type": "Health Centre", "Town": "Akropong", "Ownership": "Government", "latitude": 7.0, "longitude": -2.0, "index_right": 1.0, "NAME_1": "Ashanti", "x_utm": 610456.50533668301, "y_utm": 773866.34643519449 }, "geometry": { "type": "Point", "coordinates": [ 610456.505336683010682, 773866.346435194485821 ] } },
{ "type": "Feature", "properties": { "OBJECTID": 36, "Region": "Ashanti", "District": "Atwima-Nwabiagya", "FacilityNa": "Akropong Maternity Home", "Type": "Maternity Home", "Town": "Akropong", "Ownership": "Private", "latitude": 7.0, "longitude": -2.0, "index_right": 1.0, "NAME_1": "Ashanti", "x_utm": 610456.50533668301, "y_utm": 773866.34643519449 }, "geometry": { "type": "Point", "coordinates": [ 610456.505336683010682, 773866.346435194485821 ] } },
{ "type": "Feature", "properties": { "OBJECTID": 37, "Region": "Ashanti", "District": "Adansi South", "FacilityNa": "Akutreso Health Centre", "Type": "Health Centre", "Town": "Akutreso", "Ownership": "Government", "latitude": 6.09619, "longitude": -1.29292, "index_right": 1.0, "NAME_1": "Ashanti", "x_utm": 688915.70442672132, "y_utm": 674136.57687810354 }, "geometry": { "type": "Point", "coordinates": [ 688915.704426721320488, 674136.576878103544004 ] } },
{ "type": "Feature", "properties": { "OBJECTID": 38, "Region": "Ashanti", "District": "Ahafo-Ano North", "FacilityNa": "Akwasiase Dressing Station", "Type": "Clinic", "Town": "Akwasiase", "Ownership": "Quasi-Government", "latitude": 6.99498, "longitude": -2.19887, "index_right": 1.0, "NAME_1": "Ashanti", "x_utm": 588489.39352825133, "y_utm": 773269.26601305045 }, "geometry": { "type": "Point", "coordinates": [ 588489.393528251326643, 773269.266013050451875 ] } },
{ "type": "Feature", "properties": { "OBJECTID": 39, "Region": "Ashanti", "District": "Ahafo-Ano North", "FacilityNa": "Alice Memorial Maternity Clinic", "Type": "Maternity Home", "Town": "Tepa", "Ownership": "Private", "latitude": 6.99961, "longitude": -2.17134, "index_right": 1.0, "NAME_1": "Ashanti", "x_utm": 591529.54133037839, "y_utm": 773786.41634579597 }, "geometry": { "type": "Point", "coordinates": [ 591529.541330378386192, 773786.416345795965753 ] } },
{ "type": "Feature", "properties": { "OBJECTID": 40, "Region": "Ashanti", "District": "Obuasi Municipal", "FacilityNa": "All Souls Clinic", "Type": "Clinic", "Town": "Akaporiso", "Ownership": "Private", "latitude": 6.19852, "longitude": -1.62881, "index_right": 1.0, "NAME_1": "Ashanti", "x_utm": 651707.26047392259, "y_utm": 685345.51428412285 }, "geometry": { "type": "Point", "coordinates": [ 651707.260473922593519, 685345.514284122851677 ] } },
{ "type": "Feature", "properties": { "OBJECTID": 41, "Region": "Ashanti", "District": "Adansi South", "FacilityNa": "Allen Health Clinic", "Type": "Clinic", "Town": "Wamasi", "Ownership": "Government", "latitude": 6.08691, "longitude": -1.69553, "index_right": 1.0, "NAME_1": "Ashanti", "x_utm": 644354.20199353131, "y_utm": 672986.07384323934 }, "geometry": { "type": "Point", "coordinates": [ 644354.201993531314656, 672986.073843239340931 ] } },
{ "type": "Feature", "properties": { "OBJECTID": 42, "Region": "Ashanti", "District": "Obuasi Municipal", "FacilityNa": "Amansan Clinic", "Type": "Clinic", "Town": "Aboagye Krom", "Ownership": "Private", "latitude": 6.19128, "longitude": -1.65044, "index_right": 1.0, "NAME_1": "Ashanti", "x_utm": 649315.73267918767, "y_utm": 684538.8274491562 }, "geometry": { "type": "Point", "coordinates": [ 649315.732679187669419, 684538.827449156204239 ] } },
{ "type": "Feature", "properties": { "OBJECTID": 43, "Region": "Ashanti", "District": "Asante-Akim North Municipal", "FacilityNa": "Amantenaman Health Centre", "Type": "Health Centre", "Town": "Nyinamponase", "Ownership": "Government", "latitude": 6.77005, "longitude": -1.16254, "index_right": 1.0, "NAME_1": "Ashanti", "x_utm": 703081.14394817536, "y_utm": 748712.79041779169 }, "geometry": { "type": "Point", "coordinates": [ 703081.143948175362311, 748712.790417791693471 ] } },
{ "type": "Feature", "properties": { "OBJECTID": 44, "Region": "Ashanti", "District": "Ejisu-Juaben Municipal", "FacilityNa": "Amponsah Konadu Memorial Maternity Home", "Type": "Maternity Home", "Town": "Bonwire", "Ownership": "Private", "latitude": 6.79262, "longitude": -1.47187, "index_right": 1.0, "NAME_1": "Ashanti", "x_utm": 668876.53806620964, "y_utm": 751090.23633386113 }, "geometry": { "type": "Point", "coordinates": [ 668876.538066209643148, 751090.236333861132152 ] } },
{ "type": "Feature", "properties": { "OBJECTID": 45, "Region": "Ashanti", "District": "Adansi South", "FacilityNa": "Ampunyasi Health Centre", "Type": "Health Centre", "Town": "Ampunyasi", "Ownership": "Government", "latitude": 6.05519, "longitude": -1.73677, "index_right": 1.0, "NAME_1": "Ashanti", "x_utm": 639797.97432457085, "y_utm": 669467.9810710334 }, "geometry": { "type": "Point", "coordinates": [ 639797.974324570852332, 669467.981071033398621 ] } },
{ "type": "Feature", "properties": { "OBJECTID": 46, "Region": "Ashanti", "District": "Ahafo-Ano North", "FacilityNa": "Anane Aya Maternity Home", "Type": "Maternity Home", "Town": "Akwasiase", "Ownership": "Private", "latitude": 6.99542, "longitude": -2.19993, "index_right": 1.0, "NAME_1": "Ashanti", "x_utm": 588372.22029067366, "y_utm": 773317.71184676001 }, "geometry": { "type": "Point", "coordinates": [ 588372.22029067366384, 773317.711846760008484 ] } },
{ "type": "Feature", "properties": { "OBJECTID": 47, "Region": "Ashanti", "District": "Asante-Akim North Municipal", "FacilityNa": "Ananekrom Health Centre", "Type": "Health Centre", "Town": "Ananekrom", "Ownership": "Government", "latitude": 6.91527, "longitude": -1.01533, "index_right": 1.0, "NAME_1": "Ashanti", "x_utm": 719291.01535196521, "y_utm": 764839.69905331638 }, "geometry": { "type": "Point", "coordinates": [ 719291.015351965208538, 764839.699053316377103 ] } },
{ "type": "Feature", "properties": { "OBJECTID": 48, "Region": "Ashanti", "District": "Bosomtwe", "FacilityNa": "Anglican (Mobile) Eye Clinic", "Type": "Clinic", "Town": "Jachie", "Ownership": "CHAG", "latitude": 6.56615, "longitude": -1.52066, "index_right": 1.0, "NAME_1": "Ashanti", "x_utm": 663558.69627238868, "y_utm": 726030.17478765827 }, "geometry": { "type": "Point", "coordinates": [ 663558.696272388682701, 726030.174787658266723 ] } },
{ "type": "Feature", "properties": { "OBJECTID": 49, "Region": "Ashanti", "District": "Bosomtwe", "FacilityNa": "Atonso/Agogo Fejiase clinic", "Type": "Clinic", "Town": "Feyiase", "Ownership": "Private", "latitude": 6.61268, "longitude": -1.55999, "index_right": 1.0, "NAME_1": "Ashanti", "x_utm": 659194.54266705457, "y_utm": 731162.73755786486 }, "geometry": { "type": "Point", "coordinates": [ 659194.542667054571211, 731162.737557864864357 ] } },
{ "type": "Feature", "properties": { "OBJECTID": 50, "Region": "Ashanti", "District": "Bosomtwe", "FacilityNa": "Brodekwanu Methodis Clinic", "Type": "Clinic", "Town": "Brodekwanu", "Ownership": "CHAG", "latitude": 6.53546, "longitude": -1.35365, "index_right": 1.0, "NAME_1": "Ashanti", "x_utm": 682039.50525932037, "y_utm": 722693.81411432149 }, "geometry": { "type": "Point", "coordinates": [ 682039.505259320372716, 722693.814114321488887 ] } },
{ "type": "Feature", "properties": { "OBJECTID": 51, "Region": "Ashanti", "District": "Bosomtwe", "FacilityNa": "CAMFAP Maternity Clinic", "Type": "Clinic", "Town": "New Kokobiriko (Abijan-Nkwant", "Ownership": "Private", "latitude": 6.57933, "longitude": -1.54404, "index_right": 1.0, "NAME_1": "Ashanti", "x_utm": 660968.96801833273, "y_utm": 727480.03887882887 }, "geometry": { "type": "Point", "coordinates": [ 660968.968018332729116, 727480.038878828869201 ] } },
{ "type": "Feature", "properties": { "OBJECTID": 52, "Region": "Ashanti", "District": "Bosomtwe", "FacilityNa": "Jachie Health Centre", "Type": "Health Centre", "Town": "Jachie", "Ownership": "Government", "latitude": 6.56598, "longitude": -1.52097, "index_right": 1.0, "NAME_1": "Ashanti", "x_utm": 663524.47010809532, "y_utm": 726011.27484487393 }, "geometry": { "type": "Point", "coordinates": [ 663524.470108095323667, 726011.274844873929396 ] } },
{ "type": "Feature", "properties": { "OBJECTID": 53, "Region": "Ashanti", "District": "Bosomtwe", "FacilityNa": "Kuntenase Government Hospital", "Type": "District Hospital", "Town": "Kuntenase", "Ownership": "Government", "latitude": 6.53752, "longitude": -1.47454, "index_right": 1.0, "NAME_1": "Ashanti", "x_utm": 668668.59669871395, "y_utm": 722879.48225375661 }, "geometry": { "type": "Point", "coordinates": [ 668668.596698713954538, 722879.482253756606951 ] } },
{ "type": "Feature", "properties": { "OBJECTID": 54, "Region": "Ashanti", "District": "Bosomtwe", "FacilityNa": "Lake Bosomtwi Methodist Clinic", "Type": "Clinic", "Town": "Amakom", "Ownership": "CHAG", "latitude": 6.48398, "longitude": -1.37362, "index_right": 1.0, "NAME_1": "Ashanti", "x_utm": 679849.13177535706, "y_utm": 716993.56165225455 }, "geometry": { "type": "Point", "coordinates": [ 679849.131775357061997, 716993.561652254546061 ] } },
{ "type": "Feature", "properties": { "OBJECTID": 55, "Region": "Ashanti", "District": "Bosomtwe", "FacilityNa": "Nyameani Methodist Clinic", "Type": "Clinic", "Town": "Nyameani", "Ownership": "CHAG", "latitude": 6.56458, "longitude": -1.43022, "index_right": 1.0, "NAME_1": "Ashanti", "x_utm": 673560.84472012857, "y_utm": 725886.9951626613 }, "geometry": { "type": "Point", "coordinates": [ 673560.844720128574409, 725886.995162661303766 ] } },
{ "type": "Feature", "properties": { "OBJECTID": 56, "Region": "Ashanti", "District": "Bosomtwe", "FacilityNa": "Piase CHPS", "Type": "CHPS", "Town": "Piase", "Ownership": "Government", "latitude": 6.59099, "longitude": -1.45151, "index_right": 1.0, "NAME_1": "Ashanti", "x_utm": 671197.33155180723, "y_utm": 728800.19739815884 }, "geometry": { "type": "Point", "coordinates": [ 671197.331551807234064, 728800.197398158838041 ] } },
{ "type": "Feature", "properties": { "OBJECTID": 57, "Region": "Ashanti", "District": "Bosomtwe", "FacilityNa": "SDA Clinic Konkoma", "Type": "Clinic", "Town": "Konkoma", "Ownership": "CHAG", "latitude": 6.51291, "longitude": -1.34849, "index_right": 1.0, "NAME_1": "Ashanti", "x_utm": 682618.37901813327, "y_utm": 720201.89239934389 }, "geometry": { "type": "Point", "coordinates": [ 682618.379018133273348, 720201.892399343894795 ] } },
{ "type": "Feature", "properties": { "OBJECTID": 58, "Region": "Ashanti", "District": "Bosomtwe", "FacilityNa": "Sophia Maternity Home", "Type": "Maternity Home", "Town": "Esereso", "Ownership": "Private", "latitude": 6.63159, "longitude": -1.56147, "index_right": 1.0, "NAME_1": "Ashanti", "x_utm": 659024.83781328553, "y_utm": 733253.3122046307 }, "geometry": { "type": "Point", "coordinates": [ 659024.837813285528682, 733253.312204630696215 ] } },
{ "type": "Feature", "properties": { "OBJECTID": 59, "Region": "Ashanti", "District": "Bosomtwe", "FacilityNa": "St. Marys Anglican Clinic", "Type": "Clinic", "Town": "Apinkra", "Ownership": "CHAG", "latitude": 6.54056, "longitude": -1.54346, "index_right": 1.0, "NAME_1": "Ashanti", "x_utm": 661045.55915446777, "y_utm": 723193.05599469913 }, "geometry": { "type": "Point", "coordinates": [ 661045.559154467773624, 723193.055994699127041 ] } },
{ "type": "Feature", "properties": { "OBJECTID": 60, "Region": "Ashanti", "District": "Bosomtwe", "FacilityNa": "St. Micheal Hospital", "Type": "Hospital", "Town": "Pramso", "Ownership": "CHAG", "latitude": 6.55872, "longitude": -1.51247, "index_right": 1.0, "NAME_1": "Ashanti", "x_utm": 664466.83589404076, "y_utm": 725211.23940383981 }, "geometry": { "type": "Point", "coordinates": [ 664466.835894040763378, 725211.239403839805163 ] } },
{ "type": "Feature", "properties": { "OBJECTID": 61, "Region": "Ashanti", "District": "Obuasi Municipal", "FacilityNa": "Anyinam Clinic", "Type": "Clinic", "Town": "Obuasi-Anyinam", "Ownership": "Government", "latitude": 6.19897, "longitude": -1.68205, "index_right": 1.0, "NAME_1": "Ashanti", "x_utm": 645815.66756405262, "y_utm": 685380.34075117484 }, "geometry": { "type": "Point", "coordinates": [ 645815.667564052622765, 685380.340751174837351 ] } },
{ "type": "Feature", "properties": { "OBJECTID": 62, "Region": "Ashanti", "District": "Ahafo-Ano North", "FacilityNa": "Anyinasuso Health Centre", "Type": "Health Centre", "Town": "Anyinasuso", "Ownership": "Government", "latitude": 6.95913, "longitude": -2.10037, "index_right": 1.0, "NAME_1": "Ashanti", "x_utm": 599377.66824457771, "y_utm": 769325.3675392255 }, "geometry": { "type": "Point", "coordinates": [ 599377.668244577711448, 769325.36753922549542 ] } },
{ "type": "Feature", "properties": { "OBJECTID": 63, "Region": "Ashanti", "District": "Ahafo-Ano North", "FacilityNa": "Anyinasuso Maternity Home", "Type": "Maternity Home", "Town": "Anyinasuso", "Ownership": "Private", "latitude": 6.95871, "longitude": -2.10015, "index_right": 1.0, "NAME_1": "Ashanti", "x_utm": 599402.06087198504, "y_utm": 769278.97872654884 }, "geometry": { "type": "Point", "coordinates": [ 599402.060871985042468, 769278.978726548841223 ] } },
{ "type": "Feature", "properties": { "OBJECTID": 64, "Region": "Ashanti", "District": "Offinso North", "FacilityNa": "Anyinasusu SDA Centre", "Type": "Clinic", "Town": "Anyinasusu", "Ownership": "CHAG", "latitude": 7.01484, "longitude": -1.70874, "index_right": 1.0, "NAME_1": "Ashanti", "x_utm": 642628.27586298937, "y_utm": 775585.68200883269 }, "geometry": { "type": "Point", "coordinates": [ 642628.275862989365123, 775585.6820088326931 ] } },
{ "type": "Feature", "properties": { "OBJECTID": 65, "Region": "Ashanti", "District": "Sekyere Afram Plains", "FacilityNa": "Anyinofi Health Centre", "Type": "Health Centre", "Town": "Anyinofi", "Ownership": "Government", "latitude": 7.42528, "longitude": -0.77045, "index_right": 1.0, "NAME_1": "Ashanti", "x_utm": 746086.84017400478, "y_utm": 821381.52929803531 }, "geometry": { "type": "Point", "coordinates": [ 746086.840174004784785, 821381.529298035311513 ] } },
{ "type": "Feature", "properties": { "OBJECTID": 66, "Region": "Ashanti", "District": "Mampong Municipal", "FacilityNa": "Apaa Maternity Home", "Type": "Maternity Home", "Town": "Apaa", "Ownership": "Private", "latitude": 6.95511, "longitude": -1.43465, "index_right": 1.0, "NAME_1": "Ashanti", "x_utm": 672932.00951032783, "y_utm": 769072.54462723609 }, "geometry": { "type": "Point", "coordinates": [ 672932.009510327829048, 769072.544627236085944 ] } },
{ "type": "Feature", "properties": { "OBJECTID": 67, "Region": "Ashanti", "District": "Ejisu-Juaben Municipal", "FacilityNa": "Apromase Health Centre", "Type": "Health Centre", "Town": "Apromase", "Ownership": "Government", "latitude": 6.67085, "longitude": -1.49543, "index_right": 1.0, "NAME_1": "Ashanti", "x_utm": 666313.74696138571, "y_utm": 737616.43614495674 }, "geometry": { "type": "Point", "coordinates": [ 666313.746961385710165, 737616.436144956736825 ] } },
{ "type": "Feature", "properties": { "OBJECTID": 68, "Region": "Ashanti", "District": "Mampong Municipal", "FacilityNa": "Asaam Health Clinic", "Type": "Health Centre", "Town": "Asaam", "Ownership": "Government", "latitude": 7.11732, "longitude": -1.46598, "index_right": 1.0, "NAME_1": "Ashanti", "x_utm": 669411.16619185428, "y_utm": 786999.26185690251 }, "geometry": { "type": "Point", "coordinates": [ 669411.166191854281351, 786999.261856902507134 ] } },
{ "type": "Feature", "properties": { "OBJECTID": 69, "Region": "Ashanti", "District": "Obuasi Municipal", "FacilityNa": "Asempa   Maternity and Clinic", "Type": "Clinic", "Town": "Gausu", "Ownership": "Private", "latitude": 6.19924, "longitude": -1.68233, "index_right": 1.0, "NAME_1": "Ashanti", "x_utm": 645784.60933247942, "y_utm": 685410.11815516348 }, "geometry": { "type": "Point", "coordinates": [ 645784.609332479420118, 685410.118155163479969 ] } },
{ "type": "Feature", "properties": { "OBJECTID": 71, "Region": "Ashanti", "District": "Atwima-Kwanwoma", "FacilityNa": "Bebu Methodist Clinic", "Type": "Clinic", "Town": "Bebu", "Ownership": "CHAG", "latitude": 6.61154, "longitude": -1.68505, "index_right": 1.0, "NAME_1": "Ashanti", "x_utm": 645366.87556394027, "y_utm": 730998.39287740714 }, "geometry": { "type": "Point", "coordinates": [ 645366.875563940266147, 730998.392877407139167 ] } },
{ "type": "Feature", "properties": { "OBJECTID": 72, "Region": "Ashanti", "District": "Atwima-Kwanwoma", "FacilityNa": "Eye Adom Maternity Home", "Type": "Maternity Home", "Town": "Brofoyeduru", "Ownership": "Private", "latitude": 6.61458, "longitude": -1.65857, "index_right": 1.0, "NAME_1": "Ashanti", "x_utm": 648293.83511339, "y_utm": 731342.35524383932 }, "geometry": { "type": "Point", "coordinates": [ 648293.835113389999606, 731342.355243839323521 ] } },
{ "type": "Feature", "properties": { "OBJECTID": 73, "Region": "Ashanti", "District": "Atwima-Kwanwoma", "FacilityNa": "Foase Health Centre", "Type": "Health Centre", "Town": "Foase", "Ownership": "Government", "latitude": 6.63751, "longitude": -1.75124, "index_right": 1.0, "NAME_1": "Ashanti", "x_utm": 638041.22684276337, "y_utm": 733851.05524859275 }, "geometry": { "type": "Point", "coordinates": [ 638041.22684276336804, 733851.055248592747375 ] } },
{ "type": "Feature", "properties": { "OBJECTID": 74, "Region": "Ashanti", "District": "Atwima-Kwanwoma", "FacilityNa": "Kwanwoma Health Centre", "Type": "Health Centre", "Town": "Kwanwoma", "Ownership": "Government", "latitude": 6.62865, "longitude": -1.63524, "index_right": 1.0, "NAME_1": "Ashanti", "x_utm": 650869.14477543486, "y_utm": 732905.1717834376 }, "geometry": { "type": "Point", "coordinates": [ 650869.144775434862822, 732905.171783437603153 ] } },
{ "type": "Feature", "properties": { "OBJECTID": 75, "Region": "Ashanti", "District": "Atwima-Kwanwoma", "FacilityNa": "Trabuom Health Centre", "Type": "Health Centre", "Town": "Trabuom", "Ownership": "Government", "latitude": 6.61142, "longitude": -1.76252, "index_right": 1.0, "NAME_1": "Ashanti", "x_utm": 636801.30379235744, "y_utm": 730963.15354609897 }, "geometry": { "type": "Point", "coordinates": [ 636801.303792357444763, 730963.153546098968945 ] } },
{ "type": "Feature", "properties": { "OBJECTID": 76, "Region": "Ashanti", "District": "Atwima-Kwanwoma", "FacilityNa": "Trede Health Centre", "Type": "Health Centre", "Town": "Trede", "Ownership": "Government", "latitude": 6.57803, "longitude": -1.66859, "index_right": 1.0, "NAME_1": "Ashanti", "x_utm": 647196.72744362196, "y_utm": 727297.89996756159 }, "geometry": { "type": "Point", "coordinates": [ 647196.727443621959537, 727297.899967561592348 ] } },
{ "type": "Feature", "properties": { "OBJECTID": 77, "Region": "Ashanti", "District": "Bosome Freho", "FacilityNa": "Asiwa Health Centre", "Type": "Health Centre", "Town": "Asiwa", "Ownership": "Government", "latitude": 6.42344, "longitude": -1.33434, "index_right": 1.0, "NAME_1": "Ashanti", "x_utm": 684215.88158730103, "y_utm": 710312.54707573086 }, "geometry": { "type": "Point", "coordinates": [ 684215.881587301031686, 710312.54707573086489 ] } },
{ "type": "Feature", "properties": { "OBJECTID": 78, "Region": "Ashanti", "District": "Adansi North", "FacilityNa": "Asokwa Health Centre", "Type": "Health Centre", "Town": "Asokwa", "Ownership": "Government", "latitude": 6.28068, "longitude": -1.50786, "index_right": 1.0, "NAME_1": "Ashanti", "x_utm": 665066.1955407291, "y_utm": 694466.88747453585 }, "geometry": { "type": "Point", "coordinates": [ 665066.195540729095228, 694466.887474535848014 ] } },
{ "type": "Feature", "properties": { "OBJECTID": 79, "Region": "Ashanti", "District": "Amansie West", "FacilityNa": "Essuowin Health Centre", "Type": "Health Centre", "Town": "Assuowin", "Ownership": "Government", "latitude": 6.53656, "longitude": -1.86502, "index_right": 1.0, "NAME_1": "Ashanti", "x_utm": 625487.35882711841, "y_utm": 722659.17524391774 }, "geometry": { "type": "Point", "coordinates": [ 625487.358827118412592, 722659.175243917736225 ] } },
{ "type": "Feature", "properties": { "OBJECTID": 80, "Region": "Ashanti", "District": "Sekyere Central", "FacilityNa": "Asubuasu Health Centre", "Type": "Health Centre", "Town": "Asubuasu", "Ownership": "Government", "latitude": 7.31624, "longitude": -1.23529, "index_right": 1.0, "NAME_1": "Ashanti", "x_utm": 694809.86541006563, "y_utm": 809090.4764933273 }, "geometry": { "type": "Point", "coordinates": [ 694809.865410065627657, 809090.476493327296339 ] } },
{ "type": "Feature", "properties": { "OBJECTID": 81, "Region": "Ashanti", "District": "Atwima-Nwabiagya", "FacilityNa": "Asuofua Health Centre", "Type": "Health Centre", "Town": "Asuofia", "Ownership": "Government", "latitude": 7.0, "longitude": -2.0, "index_right": 1.0, "NAME_1": "Ashanti", "x_utm": 610456.50533668301, "y_utm": 773866.34643519449 }, "geometry": { "type": "Point", "coordinates": [ 610456.505336683010682, 773866.346435194485821 ] } },
{ "type": "Feature", "properties": { "OBJECTID": 82, "Region": "Ashanti", "District": "Adansi South", "FacilityNa": "Ataasi Health Centre", "Type": "Health Centre", "Town": "Ataasi Nkwanta", "Ownership": "Government", "latitude": 5.96664, "longitude": -1.36454, "index_right": 1.0, "NAME_1": "Ashanti", "x_utm": 681030.62131856219, "y_utm": 659785.51022306981 }, "geometry": { "type": "Point", "coordinates": [ 681030.621318562189117, 659785.510223069810309 ] } },
{ "type": "Feature", "properties": { "OBJECTID": 83, "Region": "Ashanti", "District": "Sekyere Central", "FacilityNa": "Atonsu Health Centre", "Type": "Health Centre", "Town": "Atonsu", "Ownership": "Government", "latitude": 7.02372, "longitude": -1.30912, "index_right": 1.0, "NAME_1": "Ashanti", "x_utm": 686776.46603471041, "y_utm": 776708.11137674109 }, "geometry": { "type": "Point", "coordinates": [ 686776.466034710407257, 776708.111376741086133 ] } },
{ "type": "Feature", "properties": { "OBJECTID": 84, "Region": "Ashanti", "District": "Adansi South", "FacilityNa": "Atwereboana Clinic", "Type": "Clinic", "Town": "Atwereboana", "Ownership": "Government", "latitude": 5.96235, "longitude": -1.34213, "index_right": 1.0, "NAME_1": "Ashanti", "x_utm": 683513.30983987497, "y_utm": 659318.50409122615 }, "geometry": { "type": "Point", "coordinates": [ 683513.309839874971658, 659318.504091226146556 ] } },
{ "type": "Feature", "properties": { "OBJECTID": 85, "Region": "Ashanti", "District": "Atwima-Nwabiagya", "FacilityNa": "Atwima Clinic", "Type": "Clinic", "Town": "Atwima", "Ownership": "Government", "latitude": 7.0, "longitude": -2.0, "index_right": 1.0, "NAME_1": "Ashanti", "x_utm": 610456.50533668301, "y_utm": 773866.34643519449 }, "geometry": { "type": "Point", "coordinates": [ 610456.505336683010682, 773866.346435194485821 ] } },
{ "type": "Feature", "properties": { "OBJECTID": 86, "Region": "Ashanti", "District": "Obuasi Municipal", "FacilityNa": "Avril Clinic", "Type": "Clinic", "Town": "Akaporiso", "Ownership": "Private", "latitude": 6.19802, "longitude": -1.62953, "index_right": 1.0, "NAME_1": "Ashanti", "x_utm": 651627.72816908103, "y_utm": 685290.02137426438 }, "geometry": { "type": "Point", "coordinates": [ 651627.728169081034139, 685290.021374264382757 ] } },
{ "type": "Feature", "properties": { "OBJECTID": 87, "Region": "Ashanti", "District": "Ejura Sekyeredumasi", "FacilityNa": "Babaso MCH", "Type": "Clinic", "Town": "Babaso", "Ownership": "Government", "latitude": 7.34065, "longitude": -1.32417, "index_right": 1.0, "NAME_1": "Ashanti", "x_utm": 684985.35119309404, "y_utm": 811752.54360932356 }, "geometry": { "type": "Point", "coordinates": [ 684985.351193094043992, 811752.543609323562123 ] } },
{ "type": "Feature", "properties": { "OBJECTID": 88, "Region": "Ashanti", "District": "Asante-Akim South", "FacilityNa": "Banka Health Centre", "Type": "Health Centre", "Town": "Banka", "Ownership": "Government", "latitude": 6.29824, "longitude": -1.21615, "index_right": 1.0, "NAME_1": "Ashanti", "x_utm": 697339.04858312127, "y_utm": 696509.93787368294 }, "geometry": { "type": "Point", "coordinates": [ 697339.048583121271804, 696509.937873682938516 ] } },
{ "type": "Feature", "properties": { "OBJECTID": 89, "Region": "Ashanti", "District": "Sekyere Afram Plains", "FacilityNa": "Banko Health Centre", "Type": "Health Centre", "Town": "Banko", "Ownership": "Government", "latitude": 6.75822, "longitude": -1.28473, "index_right": 1.0, "NAME_1": "Ashanti", "x_utm": 689576.8923700985, "y_utm": 747355.07513936551 }, "geometry": { "type": "Point", "coordinates": [ 689576.892370098503307, 747355.075139365508221 ] } },
{ "type": "Feature", "properties": { "OBJECTID": 90, "Region": "Ashanti", "District": "Asante-Akim South", "FacilityNa": "Banso SDA Clinic", "Type": "Clinic", "Town": "Banso", "Ownership": "Government", "latitude": 6.47584, "longitude": -1.19674, "index_right": 1.0, "NAME_1": "Ashanti", "x_utm": 699418.18635294982, "y_utm": 716159.44299573137 }, "geometry": { "type": "Point", "coordinates": [ 699418.186352949822322, 716159.442995731369592 ] } },
{ "type": "Feature", "properties": { "OBJECTID": 91, "Region": "Ashanti", "District": "Atwima-Nwabiagya", "FacilityNa": "Barekese Health Centre", "Type": "Health Centre", "Town": "Barekese", "Ownership": "Government", "latitude": 7.0, "longitude": -2.0, "index_right": 1.0, "NAME_1": "Ashanti", "x_utm": 610456.50533668301, "y_utm": 773866.34643519449 }, "geometry": { "type": "Point", "coordinates": [ 610456.505336683010682, 773866.346435194485821 ] } },
{ "type": "Feature", "properties": { "OBJECTID": 92, "Region": "Ashanti", "District": "Atwima-Mponua", "FacilityNa": "Barniekrom maternity home", "Type": "Maternity Home", "Town": "Barniekrom", "Ownership": "Government", "latitude": 6.54199, "longitude": -2.17473, "index_right": 1.0, "NAME_1": "Ashanti", "x_utm": 591240.99489378638, "y_utm": 723192.79809468403 }, "geometry": { "type": "Point", "coordinates": [ 591240.994893786380999, 723192.798094684025273 ] } },
{ "type": "Feature", "properties": { "OBJECTID": 93, "Region": "Ashanti", "District": "Asante-Akim North Municipal", "FacilityNa": "Bebome Health Centre", "Type": "Health Centre", "Town": "Bebome", "Ownership": "Government", "latitude": 6.86725, "longitude": -1.09566, "index_right": 1.0, "NAME_1": "Ashanti", "x_utm": 710433.0838461438, "y_utm": 759492.11475939432 }, "geometry": { "type": "Point", "coordinates": [ 710433.083846143796109, 759492.114759394316934 ] } },
{ "type": "Feature", "properties": { "OBJECTID": 95, "Region": "Ashanti", "District": "Bekwai Municipal", "FacilityNa": "Bekwai Government Hospital", "Type": "District Hospital", "Town": "Bekwai", "Ownership": "Government", "latitude": 6.45605, "longitude": -1.57857, "index_right": 1.0, "NAME_1": "Ashanti", "x_utm": 657188.99684275268, "y_utm": 713837.02927224862 }, "geometry": { "type": "Point", "coordinates": [ 657188.996842752676457, 713837.029272248619236 ] } },
{ "type": "Feature", "properties": { "OBJECTID": 96, "Region": "Ashanti", "District": "Mampong Municipal", "FacilityNa": "Benim Health Centre", "Type": "Health Centre", "Town": "Benim", "Ownership": "Government", "latitude": 7.09054, "longitude": -1.46459, "index_right": 1.0, "NAME_1": "Ashanti", "x_utm": 669574.52523734572, "y_utm": 784038.28455255122 }, "geometry": { "type": "Point", "coordinates": [ 669574.525237345718779, 784038.284552551223896 ] } },
{ "type": "Feature", "properties": { "OBJECTID": 97, "Region": "Ashanti", "District": "Sekyere Central", "FacilityNa": "Beposo Health Centre", "Type": "Centre", "Town": "Beposo", "Ownership": "Government", "latitude": 6.98526, "longitude": -1.35503, "index_right": 1.0, "NAME_1": "Ashanti", "x_utm": 681718.71233182424, "y_utm": 772436.71659214795 }, "geometry": { "type": "Point", "coordinates": [ 681718.712331824237481, 772436.716592147946358 ] } },
{ "type": "Feature", "properties": { "OBJECTID": 98, "Region": "Ashanti", "District": "Atwima-Mponua", "FacilityNa": "Bethel Maternity Home", "Type": "Maternity Home", "Town": "Enyinamoso", "Ownership": "Private", "latitude": 6.64692, "longitude": -1.90327, "index_right": 1.0, "NAME_1": "Ashanti", "x_utm": 621230.97464056977, "y_utm": 734851.69827592385 }, "geometry": { "type": "Point", "coordinates": [ 621230.974640569766052, 734851.698275923845358 ] } },
{ "type": "Feature", "properties": { "OBJECTID": 99, "Region": "Ashanti", "District": "Ahafo-Ano North", "FacilityNa": "Betiako Health Centre", "Type": "Health Centre", "Town": "Betiako", "Ownership": "Government", "latitude": 6.86638, "longitude": -2.20685, "index_right": 1.0, "NAME_1": "Ashanti", "x_utm": 587631.65247082931, "y_utm": 759050.19834856922 }, "geometry": { "type": "Point", "coordinates": [ 587631.652470829314552, 759050.198348569218069 ] } },
{ "type": "Feature", "properties": { "OBJECTID": 100, "Region": "Ashanti", "District": "Atwima-Mponua", "FacilityNa": "Beyerebon No.5 Health Centre", "Type": "Health Centre", "Town": "Bayerebon", "Ownership": "Government", "latitude": 6.39211, "longitude": -2.18134, "index_right": 1.0, "NAME_1": "Ashanti", "x_utm": 590536.81945655576, "y_utm": 706621.58993429516 }, "geometry": { "type": "Point", "coordinates": [ 590536.819456555764191, 706621.589934295159765 ] } },
{ "type": "Feature", "properties": { "OBJECTID": 101, "Region": "Ashanti", "District": "Mampong Municipal", "FacilityNa": "Birem Health Centre", "Type": "Health Centre", "Town": "Birem", "Ownership": "Government", "latitude": 7.22732, "longitude": -0.99197, "index_right": 1.0, "NAME_1": "Ashanti", "x_utm": 721724.16437014972, "y_utm": 799367.37874816277 }, "geometry": { "type": "Point", "coordinates": [ 721724.164370149723254, 799367.378748162765987 ] } },
{ "type": "Feature", "properties": { "OBJECTID": 102, "Region": "Ashanti", "District": "Afigya-Kwabre", "FacilityNa": "Boamang Health Centre", "Type": "Health Centre", "Town": "Boamang", "Ownership": "Government", "latitude": 6.94073, "longitude": -1.61705, "index_right": 1.0, "NAME_1": "Ashanti", "x_utm": 652781.93984820915, "y_utm": 767419.62929033907 }, "geometry": { "type": "Point", "coordinates": [ 652781.939848209149204, 767419.629290339071304 ] } },
{ "type": "Feature", "properties": { "OBJECTID": 103, "Region": "Ashanti", "District": "Sekyere South", "FacilityNa": "Boanim Health Centre", "Type": "Health Centre", "Town": "Boanim", "Ownership": "Government", "latitude": 7.03482, "longitude": -1.48741, "index_right": 1.0, "NAME_1": "Ashanti", "x_utm": 667073.65704151255, "y_utm": 777868.24036909651 }, "geometry": { "type": "Point", "coordinates": [ 667073.65704151254613, 777868.240369096514769 ] } },
{ "type": "Feature", "properties": { "OBJECTID": 104, "Region": "Ashanti", "District": "Adansi North", "FacilityNa": "Bodwesango St Louis Health Centre", "Type": "Health Centre", "Town": "Bodwesango", "Ownership": "CHAG", "latitude": 6.22249, "longitude": -1.31031, "index_right": 1.0, "NAME_1": "Ashanti", "x_utm": 686946.46217790886, "y_utm": 688098.04737775447 }, "geometry": { "type": "Point", "coordinates": [ 686946.462177908862941, 688098.047377754468471 ] } },
{ "type": "Feature", "properties": { "OBJECTID": 105, "Region": "Ashanti", "District": "Ejisu-Juaben Municipal", "FacilityNa": "Bomfa Health Centre", "Type": "Health Centre", "Town": "Bomfa", "Ownership": "Government", "latitude": 6.59635, "longitude": -1.29933, "index_right": 1.0, "NAME_1": "Ashanti", "x_utm": 688024.59333802143, "y_utm": 729447.75926860713 }, "geometry": { "type": "Point", "coordinates": [ 688024.593338021426462, 729447.759268607129343 ] } },
{ "type": "Feature", "properties": { "OBJECTID": 106, "Region": "Ashanti", "District": "Asante-Akim South", "FacilityNa": "Bompata Health Centre", "Type": "Health Centre", "Town": "Bompata", "Ownership": "Government", "latitude": 6.66727, "longitude": -1.08393, "index_right": 1.0, "NAME_1": "Ashanti", "x_utm": 711816.93822105299, "y_utm": 737378.29977526644 }, "geometry": { "type": "Point", "coordinates": [ 711816.938221052987501, 737378.299775266437791 ] } },
{ "type": "Feature", "properties": { "OBJECTID": 107, "Region": "Ashanti", "District": "Offinso Municipal", "FacilityNa": "Bonsua Health Centre", "Type": "Health Centre", "Town": "Bonsua", "Ownership": "Government", "latitude": 6.93485, "longitude": -1.67615, "index_right": 1.0, "NAME_1": "Ashanti", "x_utm": 646253.49818379898, "y_utm": 766750.80389875558 }, "geometry": { "type": "Point", "coordinates": [ 646253.498183798976243, 766750.803898755577393 ] } },
{ "type": "Feature", "properties": { "OBJECTID": 108, "Region": "Ashanti", "District": "Ejisu-Juaben Municipal", "FacilityNa": "Bonwire Clinic", "Type": "Clinic", "Town": "Bonwire", "Ownership": "Private", "latitude": 6.4716, "longitude": -1.2846, "index_right": 1.0, "NAME_1": "Ashanti", "x_utm": 689700.62149421079, "y_utm": 715656.85977839935 }, "geometry": { "type": "Point", "coordinates": [ 689700.621494210790843, 715656.859778399346396 ] } },
{ "type": "Feature", "properties": { "OBJECTID": 109, "Region": "Ashanti", "District": "Obuasi Municipal", "FacilityNa": "Brahabebome Clinic", "Type": "Clinic", "Town": "Brahabebome New Site", "Ownership": "Private", "latitude": 6.19444, "longitude": -1.63014, "index_right": 1.0, "NAME_1": "Ashanti", "x_utm": 651561.2473177996, "y_utm": 684893.99195659545 }, "geometry": { "type": "Point", "coordinates": [ 651561.247317799599841, 684893.991956595447846 ] } },
{ "type": "Feature", "properties": { "OBJECTID": 110, "Region": "Ashanti", "District": "Obuasi Municipal", "FacilityNa": "Bryant  Mission Hospital", "Type": "Hospital", "Town": "Boete", "Ownership": "Private", "latitude": 6.1131, "longitude": -1.3844, "index_right": 1.0, "NAME_1": "Ashanti", "x_utm": 678783.65455145226, "y_utm": 675975.39240684791 }, "geometry": { "type": "Point", "coordinates": [ 678783.654551452258602, 675975.392406847910024 ] } },
{ "type": "Feature", "properties": { "OBJECTID": 111, "Region": "Ashanti", "District": "Obuasi Municipal", "FacilityNa": "Cecilia Maternity  Home", "Type": "Maternity Home", "Town": "Kwabrafoso", "Ownership": "Private", "latitude": 6.19886, "longitude": -1.65574, "index_right": 1.0, "NAME_1": "Ashanti", "x_utm": 648727.11057816795, "y_utm": 685375.48276736832 }, "geometry": { "type": "Point", "coordinates": [ 648727.110578167950734, 685375.482767368317582 ] } },
{ "type": "Feature", "properties": { "OBJECTID": 112, "Region": "Ashanti", "District": "Obuasi Municipal", "FacilityNa": "Central Market Clinic", "Type": "Clinic", "Town": "Estate Extension", "Ownership": "Private", "latitude": 6.20591, "longitude": -1.67031, "index_right": 1.0, "NAME_1": "Ashanti", "x_utm": 647112.86436700937, "y_utm": 686150.95415198104 }, "geometry": { "type": "Point", "coordinates": [ 647112.864367009373382, 686150.954151981044561 ] } },
{ "type": "Feature", "properties": { "OBJECTID": 113, "Region": "Ashanti", "District": "Kwabre", "FacilityNa": "Christ Our Hope Maternity Home", "Type": "Maternity Home", "Town": "Ntonso", "Ownership": "Private", "latitude": 6.75486, "longitude": -1.52744, "index_right": 1.0, "NAME_1": "Ashanti", "x_utm": 662746.70438448258, "y_utm": 746895.66022678965 }, "geometry": { "type": "Point", "coordinates": [ 662746.7043844825821, 746895.66022678965237 ] } },
{ "type": "Feature", "properties": { "OBJECTID": 114, "Region": "Ashanti", "District": "Amansie West", "FacilityNa": "Christ Our Saviour Clinic", "Type": "Clinic", "Town": "Manso Moseaso", "Ownership": "CHAG", "latitude": 6.51142, "longitude": -1.85217, "index_right": 1.0, "NAME_1": "Ashanti", "x_utm": 626914.61295197671, "y_utm": 719882.76539750258 }, "geometry": { "type": "Point", "coordinates": [ 626914.612951976712793, 719882.76539750257507 ] } },
{ "type": "Feature", "properties": { "OBJECTID": 115, "Region": "Ashanti", "District": "Ejisu-Juaben Municipal", "FacilityNa": "Church of Christ Mission Clinic", "Type": "Clinic", "Town": "Adadientam", "Ownership": "CHAG", "latitude": 6.71394, "longitude": -1.42827, "index_right": 1.0, "NAME_1": "Ashanti", "x_utm": 673724.09800409735, "y_utm": 742404.74404521228 }, "geometry": { "type": "Point", "coordinates": [ 673724.098004097351804, 742404.744045212282799 ] } },
{ "type": "Feature", "properties": { "OBJECTID": 116, "Region": "Ashanti", "District": "Ejisu-Juaben Municipal", "FacilityNa": "Church of God Clinic", "Type": "Clinic", "Town": "Essienimpong", "Ownership": "CHAG", "latitude": 6.66053, "longitude": -1.44979, "index_right": 1.0, "NAME_1": "Ashanti", "x_utm": 671363.52291362511, "y_utm": 736490.83305112459 }, "geometry": { "type": "Point", "coordinates": [ 671363.522913625114597, 736490.833051124587655 ] } },
{ "type": "Feature", "properties": { "OBJECTID": 117, "Region": "Ashanti", "District": "Atwima-Mponua", "FacilityNa": "Community Health Centre", "Type": "Clinic", "Town": "Mpasatia", "Ownership": "CHAG", "latitude": 6.66848, "longitude": -1.84016, "index_right": 1.0, "NAME_1": "Ashanti", "x_utm": 628202.37717197661, "y_utm": 737251.43165897159 }, "geometry": { "type": "Point", "coordinates": [ 628202.377171976608224, 737251.431658971589059 ] } },
{ "type": "Feature", "properties": { "OBJECTID": 118, "Region": "Ashanti", "District": "Sekyere Central", "FacilityNa": "Cross Medical Centre", "Type": "Clinic", "Town": "Nsuta", "Ownership": "Private", "latitude": 7.00829, "longitude": -1.37595, "index_right": 1.0, "NAME_1": "Ashanti", "x_utm": 679398.28920545254, "y_utm": 774975.58020996582 }, "geometry": { "type": "Point", "coordinates": [ 679398.289205452543683, 774975.58020996581763 ] } },
{ "type": "Feature", "properties": { "OBJECTID": 119, "Region": "Ashanti", "District": "Asante-Akim North Municipal", "FacilityNa": "Daasebre Maternity Home", "Type": "Maternity Home", "Town": "Ahenebronuum", "Ownership": "Private", "latitude": 6.62776, "longitude": -1.21314, "index_right": 1.0, "NAME_1": "Ashanti", "x_utm": 697544.16174818878, "y_utm": 732954.96149044496 }, "geometry": { "type": "Point", "coordinates": [ 697544.161748188780621, 732954.961490444955416 ] } },
{ "type": "Feature", "properties": { "OBJECTID": 120, "Region": "Ashanti", "District": "Sekyere Afram Plains", "FacilityNa": "Dadiase Health Centre", "Type": "Health Centre", "Town": "Dadiase", "Ownership": "Government", "latitude": 6.88078, "longitude": -1.36776, "index_right": 1.0, "NAME_1": "Ashanti", "x_utm": 680351.80857132748, "y_utm": 760877.37144711241 }, "geometry": { "type": "Point", "coordinates": [ 680351.808571327477694, 760877.371447112411261 ] } },
{ "type": "Feature", "properties": { "OBJECTID": 121, "Region": "Ashanti", "District": "Ejisu-Juaben Municipal", "FacilityNa": "Dakopon Hospital", "Type": "Hospital", "Town": "Kwamo", "Ownership": "Private", "latitude": 6.72086, "longitude": -1.49322, "index_right": 1.0, "NAME_1": "Ashanti", "x_utm": 666541.131793265, "y_utm": 743147.41733267554 }, "geometry": { "type": "Point", "coordinates": [ 666541.131793264998123, 743147.41733267554082 ] } },
{ "type": "Feature", "properties": { "OBJECTID": 122, "Region": "Ashanti", "District": "Amansie West", "FacilityNa": "Datano Health Post", "Type": "Clinic", "Town": "Datano", "Ownership": "CHAG", "latitude": 6.29398, "longitude": -1.97098, "index_right": 1.0, "NAME_1": "Ashanti", "x_utm": 613824.57755244174, "y_utm": 695813.99799468648 }, "geometry": { "type": "Point", "coordinates": [ 613824.577552441740409, 695813.997994686476886 ] } },
{ "type": "Feature", "properties": { "OBJECTID": 123, "Region": "Ashanti", "District": "Bosome Freho", "FacilityNa": "Detieso Community Clinic", "Type": "Clinic", "Town": "Detieso", "Ownership": "Government", "latitude": 6.47674, "longitude": -1.44168, "index_right": 1.0, "NAME_1": "Ashanti", "x_utm": 672323.48567845766, "y_utm": 716169.29887267342 }, "geometry": { "type": "Point", "coordinates": [ 672323.485678457655013, 716169.298872673418373 ] } },
{ "type": "Feature", "properties": { "OBJECTID": 124, "Region": "Ashanti", "District": "Sekyere South", "FacilityNa": "Domeabra Health Centre", "Type": "Health Centre", "Town": "Domeabra", "Ownership": "Government", "latitude": 6.93864, "longitude": -1.55757, "index_right": 1.0, "NAME_1": "Ashanti", "x_utm": 659355.0482101728, "y_utm": 767208.10261295794 }, "geometry": { "type": "Point", "coordinates": [ 659355.048210172797553, 767208.102612957940437 ] } },
{ "type": "Feature", "properties": { "OBJECTID": 125, "Region": "Ashanti", "District": "Adansi North", "FacilityNa": "Dompoase Benito Menni Health Centre", "Type": "Health Centre", "Town": "Dompoase", "Ownership": "CHAG", "latitude": 6.32282, "longitude": -1.54468, "index_right": 1.0, "NAME_1": "Ashanti", "x_utm": 660979.16095896019, "y_utm": 699115.19739901915 }, "geometry": { "type": "Point", "coordinates": [ 660979.16095896018669, 699115.197399019147269 ] } },
{ "type": "Feature", "properties": { "OBJECTID": 126, "Region": "Ashanti", "District": "Amansie West", "FacilityNa": "Dora Maternity Clinic", "Type": "Maternity Home", "Town": "Pakyi  No 2", "Ownership": "Private", "latitude": 6.4804, "longitude": -1.4951, "index_right": 1.0, "NAME_1": "Ashanti", "x_utm": 666413.59270635131, "y_utm": 716556.2065625909 }, "geometry": { "type": "Point", "coordinates": [ 666413.592706351308152, 716556.20656259090174 ] } },
{ "type": "Feature", "properties": { "OBJECTID": 127, "Region": "Ashanti", "District": "Offinso North", "FacilityNa": "Dorcas Memorial Clinic", "Type": "Clinic", "Town": "Akomadan", "Ownership": "CHAG", "latitude": 7.39694, "longitude": -1.95297, "index_right": 1.0, "NAME_1": "Ashanti", "x_utm": 615551.31827528914, "y_utm": 817765.52028484282 }, "geometry": { "type": "Point", "coordinates": [ 615551.318275289144367, 817765.520284842816181 ] } },
{ "type": "Feature", "properties": { "OBJECTID": 128, "Region": "Ashanti", "District": "Bosome Freho", "FacilityNa": "Duasi Community Clinic", "Type": "Clinic", "Town": "Duasi", "Ownership": "Government", "latitude": 6.46863, "longitude": -1.39522, "index_right": 1.0, "NAME_1": "Ashanti", "x_utm": 677465.29731192754, "y_utm": 715288.44576014858 }, "geometry": { "type": "Point", "coordinates": [ 677465.297311927541159, 715288.445760148577392 ] } },
{ "type": "Feature", "properties": { "OBJECTID": 129, "Region": "Ashanti", "District": "Asante-Akim North Municipal", "FacilityNa": "Dwease Health Centre", "Type": "Health Centre", "Town": "Dwease", "Ownership": "Government", "latitude": 6.53747, "longitude": -1.24407, "index_right": 1.0, "NAME_1": "Ashanti", "x_utm": 694158.76713986532, "y_utm": 722957.08052153129 }, "geometry": { "type": "Point", "coordinates": [ 694158.767139865318313, 722957.080521531286649 ] } },
{ "type": "Feature", "properties": { "OBJECTID": 130, "Region": "Ashanti", "District": "Asante-Akim South", "FacilityNa": "Dwendwenase Health Centre", "Type": "Health Centre", "Town": "Dwendwenase", "Ownership": "Government", "latitude": 6.41223, "longitude": -1.19934, "index_right": 1.0, "NAME_1": "Ashanti", "x_utm": 699155.38812614721, "y_utm": 709123.30756752193 }, "geometry": { "type": "Point", "coordinates": [ 699155.388126147212461, 709123.307567521929741 ] } },
{ "type": "Feature", "properties": { "OBJECTID": 131, "Region": "Ashanti", "District": "Atwima-Mponua", "FacilityNa": "Ebenezer Methodist Clinic", "Type": "Clinic", "Town": "Mpasatia", "Ownership": "CHAG", "latitude": 6.65865, "longitude": -1.84306, "index_right": 1.0, "NAME_1": "Ashanti", "x_utm": 627884.33129850216, "y_utm": 736163.80454267247 }, "geometry": { "type": "Point", "coordinates": [ 627884.331298502162099, 736163.804542672471143 ] } },
{ "type": "Feature", "properties": { "OBJECTID": 132, "Region": "Ashanti", "District": "Adansi South", "FacilityNa": "Edwafo Health Centre", "Type": "Health Centre", "Town": "Edwafo", "Ownership": "Government", "latitude": 6.19675, "longitude": -1.57367, "index_right": 1.0, "NAME_1": "Ashanti", "x_utm": 657809.64331418462, "y_utm": 685165.88107467128 }, "geometry": { "type": "Point", "coordinates": [ 657809.643314184620976, 685165.881074671284296 ] } },
{ "type": "Feature", "properties": { "OBJECTID": 133, "Region": "Ashanti", "District": "Sekyere East", "FacilityNa": "Effiduase District Hospital", "Type": "District Hospital", "Town": "Effiduase", "Ownership": "Government", "latitude": 6.84739, "longitude": -1.39373, "index_right": 1.0, "NAME_1": "Ashanti", "x_utm": 677493.92814912624, "y_utm": 757175.10398465686 }, "geometry": { "type": "Point", "coordinates": [ 677493.928149126237258, 757175.103984656860121 ] } },
{ "type": "Feature", "properties": { "OBJECTID": 134, "Region": "Ashanti", "District": "Sekyere East", "FacilityNa": "Effiduase Trust Maternity Home", "Type": "Maternity Home", "Town": "Effiduase", "Ownership": "Private", "latitude": 6.84821, "longitude": -1.39412, "index_right": 1.0, "NAME_1": "Ashanti", "x_utm": 677450.51871561201, "y_utm": 757265.64229758724 }, "geometry": { "type": "Point", "coordinates": [ 677450.518715612008236, 757265.642297587241046 ] } },
{ "type": "Feature", "properties": { "OBJECTID": 135, "Region": "Ashanti", "District": "Ejisu-Juaben Municipal", "FacilityNa": "Ejisu Health Centre", "Type": "Health Centre", "Town": "Ejisu", "Ownership": "Government", "latitude": 6.72103, "longitude": -1.47028, "index_right": 1.0, "NAME_1": "Ashanti", "x_utm": 669077.16718883114, "y_utm": 743174.08333856787 }, "geometry": { "type": "Point", "coordinates": [ 669077.167188831139356, 743174.083338567870669 ] } },
{ "type": "Feature", "properties": { "OBJECTID": 136, "Region": "Ashanti", "District": "Ejura Sekyeredumasi", "FacilityNa": "Ejura District Hospital", "Type": "District Hospital", "Town": "Ejura", "Ownership": "Government", "latitude": 7.38906, "longitude": -1.35197, "index_right": 1.0, "NAME_1": "Ashanti", "x_utm": 681896.09016180434, "y_utm": 817094.96327812562 }, "geometry": { "type": "Point", "coordinates": [ 681896.090161804342642, 817094.96327812562231 ] } },
{ "type": "Feature", "properties": { "OBJECTID": 137, "Region": "Ashanti", "District": "Ejura Sekyeredumasi", "FacilityNa": "Ejura MCH", "Type": "Clinic", "Town": "Ejura", "Ownership": "Government", "latitude": 7.36556, "longitude": -1.34358, "index_right": 1.0, "NAME_1": "Ashanti", "x_utm": 682832.01073759724, "y_utm": 814499.45596157073 }, "geometry": { "type": "Point", "coordinates": [ 682832.01073759724386, 814499.455961570725776 ] } },
{ "type": "Feature", "properties": { "OBJECTID": 138, "Region": "Ashanti", "District": "Afigya-Kwabre", "FacilityNa": "Ejuratia Health Centre", "Type": "Health Centre", "Town": "Ejuratia", "Ownership": "Government", "latitude": 6.82287, "longitude": -1.52227, "index_right": 1.0, "NAME_1": "Ashanti", "x_utm": 663295.28019275679, "y_utm": 754418.04235521669 }, "geometry": { "type": "Point", "coordinates": [ 663295.28019275679253, 754418.042355216690339 ] } },
{ "type": "Feature", "properties": { "OBJECTID": 139, "Region": "Ashanti", "District": "Obuasi Municipal", "FacilityNa": "Emmanuel  Maternity  Home", "Type": "Maternity Home", "Town": "Boete", "Ownership": "Private", "latitude": 6.19235, "longitude": -1.64475, "index_right": 1.0, "NAME_1": "Ashanti", "x_utm": 649945.08935377514, "y_utm": 684658.7441449326 }, "geometry": { "type": "Point", "coordinates": [ 649945.089353775139898, 684658.744144932599738 ] } },
{ "type": "Feature", "properties": { "OBJECTID": 140, "Region": "Ashanti", "District": "Ejura Sekyeredumasi", "FacilityNa": "Enso Nyameye Maternity Home", "Type": "Maternity Home", "Town": "Kontokori Line", "Ownership": "Private", "latitude": 7.37894, "longitude": -1.35796, "index_right": 1.0, "NAME_1": "Ashanti", "x_utm": 681238.90972279175, "y_utm": 815973.32374906808 }, "geometry": { "type": "Point", "coordinates": [ 681238.909722791751847, 815973.323749068076722 ] } },
{ "type": "Feature", "properties": { "OBJECTID": 141, "Region": "Ashanti", "District": "Ahafo-Ano South", "FacilityNa": "Essienkyem Health Centre", "Type": "Health Centre", "Town": "Essienkyem", "Ownership": "Government", "latitude": 6.97584, "longitude": -1.84784, "index_right": 1.0, "NAME_1": "Ashanti", "x_utm": 627272.17046918382, "y_utm": 771233.49409748602 }, "geometry": { "type": "Point", "coordinates": [ 627272.170469183824025, 771233.494097486021928 ] } },
{ "type": "Feature", "properties": { "OBJECTID": 142, "Region": "Ashanti", "District": "Atwima-Nwabiagya", "FacilityNa": "Everest Hospital", "Type": "Hospital", "Town": "Achiase", "Ownership": "Private", "latitude": 7.0, "longitude": -2.0, "index_right": 1.0, "NAME_1": "Ashanti", "x_utm": 610456.50533668301, "y_utm": 773866.34643519449 }, "geometry": { "type": "Point", "coordinates": [ 610456.505336683010682, 773866.346435194485821 ] } },
{ "type": "Feature", "properties": { "OBJECTID": 144, "Region": "Ashanti", "District": "Afigya-Kwabre", "FacilityNa": "Family Care Hospital", "Type": "Hospital", "Town": "Mowre", "Ownership": "Private", "latitude": 6.81614, "longitude": -1.47675, "index_right": 1.0, "NAME_1": "Ashanti", "x_utm": 668328.92089022999, "y_utm": 753689.46952002356 }, "geometry": { "type": "Point", "coordinates": [ 668328.920890229986981, 753689.469520023558289 ] } },
{ "type": "Feature", "properties": { "OBJECTID": 145, "Region": "Ashanti", "District": "Kwabre", "FacilityNa": "Fawade Nkanta Clinic", "Type": "Clinic", "Town": "Fawade", "Ownership": "Private", "latitude": 6.81047, "longitude": -1.63866, "index_right": 1.0, "NAME_1": "Ashanti", "x_utm": 650435.10161718132, "y_utm": 753009.02599064214 }, "geometry": { "type": "Point", "coordinates": [ 650435.1016171813244, 753009.025990642141551 ] } },
{ "type": "Feature", "properties": { "OBJECTID": 147, "Region": "Ashanti", "District": "Adansi North", "FacilityNa": "Fomena Health Centre", "Type": "Health Centre", "Town": "Fomena", "Ownership": "Government", "latitude": 6.28022, "longitude": -1.51002, "index_right": 1.0, "NAME_1": "Ashanti", "x_utm": 664827.33989668405, "y_utm": 694415.34005348966 }, "geometry": { "type": "Point", "coordinates": [ 664827.339896684046835, 694415.340053489664569 ] } },
{ "type": "Feature", "properties": { "OBJECTID": 148, "Region": "Ashanti", "District": "Adansi North", "FacilityNa": "Fumso Health Centre", "Type": "Health Centre", "Town": "Fumso", "Ownership": "Government", "latitude": 6.11048, "longitude": -1.44854, "index_right": 1.0, "NAME_1": "Ashanti", "x_utm": 671684.96116075292, "y_utm": 675664.76552612032 }, "geometry": { "type": "Point", "coordinates": [ 671684.961160752922297, 675664.7655261203181 ] } },
{ "type": "Feature", "properties": { "OBJECTID": 149, "Region": "Ashanti", "District": "Adansi North", "FacilityNa": "Fumso-Ketewa Health Centre", "Type": "Health Centre", "Town": "Fumso Ketewa", "Ownership": "Government", "latitude": 6.29675, "longitude": -1.63103, "index_right": 1.0, "NAME_1": "Ashanti", "x_utm": 651433.34775368217, "y_utm": 696206.5848119444 }, "geometry": { "type": "Point", "coordinates": [ 651433.347753682173789, 696206.584811944398098 ] } },
{ "type": "Feature", "properties": { "OBJECTID": 150, "Region": "Ashanti", "District": "Afigya-Kwabre", "FacilityNa": "Gladys Maternity Home", "Type": "Maternity Home", "Town": "Kodie", "Ownership": "Private", "latitude": 6.78875, "longitude": -1.56109, "index_right": 1.0, "NAME_1": "Ashanti", "x_utm": 659015.84631008259, "y_utm": 750632.08436934836 }, "geometry": { "type": "Point", "coordinates": [ 659015.846310082590207, 750632.084369348362088 ] } },
{ "type": "Feature", "properties": { "OBJECTID": 151, "Region": "Ashanti", "District": "Ejisu-Juaben Municipal", "FacilityNa": "Global Evangelical Mission Hospital", "Type": "Hospital", "Town": "Apromase", "Ownership": "CHAG", "latitude": 6.66903, "longitude": -1.49298, "index_right": 1.0, "NAME_1": "Ashanti", "x_utm": 666585.24378725409, "y_utm": 737416.00319840061 }, "geometry": { "type": "Point", "coordinates": [ 666585.243787254090421, 737416.00319840060547 ] } },
{ "type": "Feature", "properties": { "OBJECTID": 152, "Region": "Ashanti", "District": "Atwima-Nwabiagya", "FacilityNa": "God is Able Maternity Home", "Type": "Maternity Home", "Town": "Sepase", "Ownership": "Private", "latitude": 7.0, "longitude": -2.0, "index_right": 1.0, "NAME_1": "Ashanti", "x_utm": 610456.50533668301, "y_utm": 773866.34643519449 }, "geometry": { "type": "Point", "coordinates": [ 610456.505336683010682, 773866.346435194485821 ] } },
{ "type": "Feature", "properties": { "OBJECTID": 153, "Region": "Ashanti", "District": "Ejisu-Juaben Municipal", "FacilityNa": "Grace Maternity Home and Clinic", "Type": "Maternity Home", "Town": "Akyawkrom", "Ownership": "Private", "latitude": 6.73257, "longitude": -1.46146, "index_right": 1.0, "NAME_1": "Ashanti", "x_utm": 670048.23961199389, "y_utm": 744453.2826467125 }, "geometry": { "type": "Point", "coordinates": [ 670048.23961199389305, 744453.282646712497808 ] } },
{ "type": "Feature", "properties": { "OBJECTID": 154, "Region": "Ashanti", "District": "Bosome Freho", "FacilityNa": "Gyasikrom Health Centre", "Type": "Clinic", "Town": "Gyasikrom", "Ownership": "Government", "latitude": 6.40145, "longitude": -1.47313, "index_right": 1.0, "NAME_1": "Ashanti", "x_utm": 668869.72675400437, "y_utm": 707832.97230335418 }, "geometry": { "type": "Point", "coordinates": [ 668869.726754004368559, 707832.972303354181349 ] } },
{ "type": "Feature", "properties": { "OBJECTID": 155, "Region": "Ashanti", "District": "Atwima-Mponua", "FacilityNa": "Gyreso RCH", "Type": "RCH", "Town": "Gyeresu", "Ownership": "Government", "latitude": 6.47006, "longitude": -2.41673, "index_right": 1.0, "NAME_1": "Ashanti", "x_utm": 564493.80417774466, "y_utm": 715203.47032576799 }, "geometry": { "type": "Point", "coordinates": [ 564493.80417774466332, 715203.470325767993927 ] } },
{ "type": "Feature", "properties": { "OBJECTID": 156, "Region": "Ashanti", "District": "Ejura Sekyeredumasi", "FacilityNa": "Homako Community Clinic", "Type": "Clinic", "Town": "Homako", "Ownership": "Government", "latitude": 7.42915, "longitude": -1.45106, "index_right": 1.0, "NAME_1": "Ashanti", "x_utm": 670941.20866972685, "y_utm": 821489.16885271855 }, "geometry": { "type": "Point", "coordinates": [ 670941.208669726853259, 821489.168852718546987 ] } },
{ "type": "Feature", "properties": { "OBJECTID": 157, "Region": "Ashanti", "District": "Ejisu-Juaben Municipal", "FacilityNa": "Humble Maternity Home", "Type": "Maternity Home", "Town": "Kokobra", "Ownership": "Private", "latitude": 6.71479, "longitude": -1.52225, "index_right": 1.0, "NAME_1": "Ashanti", "x_utm": 663333.830715082, "y_utm": 742466.40455354715 }, "geometry": { "type": "Point", "coordinates": [ 663333.830715082003735, 742466.404553547152318 ] } },
{ "type": "Feature", "properties": { "OBJECTID": 158, "Region": "Ashanti", "District": "Ejisu-Juaben Municipal", "FacilityNa": "Huttel Health Centre", "Type": "Health Centre", "Town": "Boamadumase", "Ownership": "Private", "latitude": 6.61582, "longitude": -1.34007, "index_right": 1.0, "NAME_1": "Ashanti", "x_utm": 683511.98527801712, "y_utm": 731585.76817735971 }, "geometry": { "type": "Point", "coordinates": [ 683511.985278017120436, 731585.768177359714173 ] } },
{ "type": "Feature", "properties": { "OBJECTID": 159, "Region": "Ashanti", "District": "Adansi South", "FacilityNa": "Hwidiem Community Clinic", "Type": "Clinic", "Town": "Hwidiem", "Ownership": "Government", "latitude": 5.89432, "longitude": -1.46766, "index_right": 1.0, "NAME_1": "Ashanti", "x_utm": 669635.50296057924, "y_utm": 651755.48550938303 }, "geometry": { "type": "Point", "coordinates": [ 669635.502960579236969, 651755.48550938302651 ] } },
{ "type": "Feature", "properties": { "OBJECTID": 160, "Region": "Ashanti", "District": "Obuasi Municipal", "FacilityNa": "Ideal Homoepatic Clinic", "Type": "Clinic", "Town": "Obuasi - Stadium", "Ownership": "Private", "latitude": 6.20564, "longitude": -1.68425, "index_right": 1.0, "NAME_1": "Ashanti", "x_utm": 645570.39120167179, "y_utm": 686117.24948705186 }, "geometry": { "type": "Point", "coordinates": [ 645570.391201671794988, 686117.249487051856704 ] } },
{ "type": "Feature", "properties": { "OBJECTID": 161, "Region": "Ashanti", "District": "Sekyere Central", "FacilityNa": "Isaaka Akura Health Centre", "Type": "Health Centre", "Town": "Isaaka Akura-Afram  Plains", "Ownership": "Private", "latitude": 7.41542, "longitude": -1.13783, "index_right": 1.0, "NAME_1": "Ashanti", "x_utm": 705526.53929440549, "y_utm": 820103.68986065348 }, "geometry": { "type": "Point", "coordinates": [ 705526.539294405491091, 820103.689860653481446 ] } },
{ "type": "Feature", "properties": { "OBJECTID": 162, "Region": "Ashanti", "District": "Afigya-Kwabre", "FacilityNa": "Jalua  Maternity Home", "Type": "Maternity Home", "Town": "Nkukua Buoho", "Ownership": "Private", "latitude": 6.81462, "longitude": -1.64877, "index_right": 1.0, "NAME_1": "Ashanti", "x_utm": 649316.40696501581, "y_utm": 753464.7780586502 }, "geometry": { "type": "Point", "coordinates": [ 649316.406965015805326, 753464.778058650204912 ] } },
{ "type": "Feature", "properties": { "OBJECTID": 163, "Region": "Ashanti", "District": "Sekyere South", "FacilityNa": "Jamasi Health Centre", "Type": "Health Centre", "Town": "Jamasi", "Ownership": "Government", "latitude": 6.97753, "longitude": -1.47255, "index_right": 1.0, "NAME_1": "Ashanti", "x_utm": 668736.00777194602, "y_utm": 771538.16446084005 }, "geometry": { "type": "Point", "coordinates": [ 668736.00777194602415, 771538.164460840052925 ] } },
{ "type": "Feature", "properties": { "OBJECTID": 164, "Region": "Ashanti", "District": "Sekyere Central", "FacilityNa": "Jeduako Clinic", "Type": "Clinic", "Town": "Jeduako", "Ownership": "Government", "latitude": 7.09501, "longitude": -1.20917, "index_right": 1.0, "NAME_1": "Ashanti", "x_utm": 697790.17024516407, "y_utm": 784633.79838769301 }, "geometry": { "type": "Point", "coordinates": [ 697790.170245164074004, 784633.798387693008408 ] } },
{ "type": "Feature", "properties": { "OBJECTID": 165, "Region": "Ashanti", "District": "Obuasi Municipal", "FacilityNa": "Jemina Maternity Home", "Type": "Maternity Home", "Town": "Obuasi Central", "Ownership": "Private", "latitude": 6.20313, "longitude": -1.66816, "index_right": 1.0, "NAME_1": "Ashanti", "x_utm": 647351.54832657694, "y_utm": 685844.16038787959 }, "geometry": { "type": "Point", "coordinates": [ 647351.548326576943509, 685844.160387879586779 ] } },
{ "type": "Feature", "properties": { "OBJECTID": 166, "Region": "Ashanti", "District": "Ejisu-Juaben Municipal", "FacilityNa": "Jesus Is Lord Maternity Home", "Type": "Maternity Home", "Town": "Tikrom", "Ownership": "Private", "latitude": 6.73865, "longitude": -1.51092, "index_right": 1.0, "NAME_1": "Ashanti", "x_utm": 664578.36232248275, "y_utm": 745108.68000772013 }, "geometry": { "type": "Point", "coordinates": [ 664578.362322482746094, 745108.68000772013329 ] } },
{ "type": "Feature", "properties": { "OBJECTID": 167, "Region": "Ashanti", "District": "Kwabre", "FacilityNa": "Joy Maternity Home", "Type": "Maternity Home", "Town": "Mamponteng", "Ownership": "Private", "latitude": 6.79962, "longitude": -1.64543, "index_right": 1.0, "NAME_1": "Ashanti", "x_utm": 649690.20644811564, "y_utm": 751807.17441234854 }, "geometry": { "type": "Point", "coordinates": [ 649690.206448115641251, 751807.1744123485405 ] } },
{ "type": "Feature", "properties": { "OBJECTID": 168, "Region": "Ashanti", "District": "Ejisu-Juaben Municipal", "FacilityNa": "Juaben Government Hospital", "Type": "District Hospital", "Town": "Juaben", "Ownership": "Government", "latitude": 6.81602, "longitude": -1.41392, "index_right": 1.0, "NAME_1": "Ashanti", "x_utm": 675273.78477597283, "y_utm": 753698.56952784129 }, "geometry": { "type": "Point", "coordinates": [ 675273.784775972831994, 753698.569527841289528 ] } },
{ "type": "Feature", "properties": { "OBJECTID": 169, "Region": "Ashanti", "District": "Asante-Akim North Municipal", "FacilityNa": "Juansa Health Centre", "Type": "Health Centre", "Town": "Juansa", "Ownership": "Government", "latitude": 6.72336, "longitude": -1.12734, "index_right": 1.0, "NAME_1": "Ashanti", "x_utm": 706992.72440157598, "y_utm": 743563.58643220773 }, "geometry": { "type": "Point", "coordinates": [ 706992.724401575978845, 743563.586432207725011 ] } },
{ "type": "Feature", "properties": { "OBJECTID": 170, "Region": "Ashanti", "District": "Asante-Akim South", "FacilityNa": "Juaso District Hospital", "Type": "District Hospital", "Town": "Juaso", "Ownership": "Government", "latitude": 6.59223, "longitude": -1.12113, "index_right": 1.0, "NAME_1": "Ashanti", "x_utm": 707734.54261388711, "y_utm": 729062.81882192544 }, "geometry": { "type": "Point", "coordinates": [ 707734.542613887111656, 729062.818821925437078 ] } },
{ "type": "Feature", "properties": { "OBJECTID": 171, "Region": "Ashanti", "District": "Amansie West", "FacilityNa": "Keniago CHPS", "Type": "CHPS", "Town": "Keniago", "Ownership": "Government", "latitude": 6.37344, "longitude": -2.01764, "index_right": 1.0, "NAME_1": "Ashanti", "x_utm": 608646.17588045378, "y_utm": 704589.12338103831 }, "geometry": { "type": "Point", "coordinates": [ 608646.175880453782156, 704589.1233810383128 ] } },
{ "type": "Feature", "properties": { "OBJECTID": 172, "Region": "Ashanti", "District": "Kwabre", "FacilityNa": "Kenyasi Health Centre", "Type": "Health Centre", "Town": "Kenyasi", "Ownership": "Government", "latitude": 6.78507, "longitude": -1.56655, "index_right": 1.0, "NAME_1": "Ashanti", "x_utm": 658413.53442816564, "y_utm": 750223.36350772821 }, "geometry": { "type": "Point", "coordinates": [ 658413.534428165643476, 750223.363507728208788 ] } },
{ "type": "Feature", "properties": { "OBJECTID": 173, "Region": "Ashanti", "District": "Obuasi Municipal", "FacilityNa": "KofiKrom Clinic", "Type": "Clinic", "Town": "Kofi Krom", "Ownership": "Private", "latitude": 6.19624, "longitude": -1.68043, "index_right": 1.0, "NAME_1": "Ashanti", "x_utm": 645995.68332763435, "y_utm": 685078.92531534156 }, "geometry": { "type": "Point", "coordinates": [ 645995.683327634353191, 685078.925315341562964 ] } },
{ "type": "Feature", "properties": { "OBJECTID": 174, "Region": "Ashanti", "District": "Mampong Municipal", "FacilityNa": "Kofiase Health Centre", "Type": "Health Centre", "Town": "Kofiase", "Ownership": "Government", "latitude": 7.14113, "longitude": -1.48363, "index_right": 1.0, "NAME_1": "Ashanti", "x_utm": 667452.87200820912, "y_utm": 789625.8571410334 }, "geometry": { "type": "Point", "coordinates": [ 667452.872008209116757, 789625.857141033397056 ] } },
{ "type": "Feature", "properties": { "OBJECTID": 175, "Region": "Ashanti", "District": "Bekwai Municipal", "FacilityNa": "Kokofu General Hospital", "Type": "Hospital", "Town": "Kokofu", "Ownership": "Government", "latitude": 6.49903, "longitude": -1.52254, "index_right": 1.0, "NAME_1": "Ashanti", "x_utm": 663372.57387979957, "y_utm": 718607.40034262766 }, "geometry": { "type": "Point", "coordinates": [ 663372.573879799572751, 718607.400342627661303 ] } },
{ "type": "Feature", "properties": { "OBJECTID": 176, "Region": "Ashanti", "District": "Sekyere South", "FacilityNa": "Kona Health Centre", "Type": "Health Centre", "Town": "Kona", "Ownership": "Government", "latitude": 6.86776, "longitude": -1.51231, "index_right": 1.0, "NAME_1": "Ashanti", "x_utm": 664380.77660315728, "y_utm": 759385.46585389739 }, "geometry": { "type": "Point", "coordinates": [ 664380.776603157282807, 759385.465853897389024 ] } },
{ "type": "Feature", "properties": { "OBJECTID": 177, "Region": "Ashanti", "District": "Asante-Akim North Municipal", "FacilityNa": "Konongo-Odumasi Government Hospital", "Type": "District Hospital", "Town": "Konongo", "Ownership": "Government", "latitude": 6.62436, "longitude": -1.21792, "index_right": 1.0, "NAME_1": "Ashanti", "x_utm": 697016.89732998144, "y_utm": 732577.03002835519 }, "geometry": { "type": "Point", "coordinates": [ 697016.897329981438816, 732577.030028355191462 ] } },
{ "type": "Feature", "properties": { "OBJECTID": 178, "Region": "Ashanti", "District": "Mampong Municipal", "FacilityNa": "Krobo Health Centre", "Type": "Health Centre", "Town": "Krobo", "Ownership": "Government", "latitude": 7.07457, "longitude": -1.42352, "index_right": 1.0, "NAME_1": "Ashanti", "x_utm": 674117.49491823383, "y_utm": 782287.40998751228 }, "geometry": { "type": "Point", "coordinates": [ 674117.494918233831413, 782287.409987512277439 ] } },
{ "type": "Feature", "properties": { "OBJECTID": 179, "Region": "Ashanti", "District": "Sekyere Afram Plains", "FacilityNa": "Kumawu Health Centre", "Type": "Health Centre", "Town": "Kumawu", "Ownership": "Government", "latitude": 6.90708, "longitude": -1.26803, "index_right": 1.0, "NAME_1": "Ashanti", "x_utm": 691363.95053216419, "y_utm": 763824.81227070163 }, "geometry": { "type": "Point", "coordinates": [ 691363.950532164191827, 763824.812270701630041 ] } },
{ "type": "Feature", "properties": { "OBJECTID": 180, "Region": "Ashanti", "District": "Asante-Akim South", "FacilityNa": "Komeso Health Centre", "Type": "Health Centre", "Town": "Kumeso", "Ownership": "Government", "latitude": 6.46154, "longitude": -1.06901, "index_right": 1.0, "NAME_1": "Ashanti", "x_utm": 713554.62290059822, "y_utm": 714629.73373380804 }, "geometry": { "type": "Point", "coordinates": [ 713554.622900598216802, 714629.733733808039688 ] } },
{ "type": "Feature", "properties": { "OBJECTID": 181, "Region": "Ashanti", "District": "Afigya-Kwabre", "FacilityNa": "Kwamang Health Centre", "Type": "Health Centre", "Town": "Kwamang", "Ownership": "Government", "latitude": 6.89664, "longitude": -1.62457, "index_right": 1.0, "NAME_1": "Ashanti", "x_utm": 651965.10956222052, "y_utm": 762541.85871703888 }, "geometry": { "type": "Point", "coordinates": [ 651965.109562220517546, 762541.85871703887824 ] } },
{ "type": "Feature", "properties": { "OBJECTID": 182, "Region": "Ashanti", "District": "Sekyere Central", "FacilityNa": "Kwamang Health Centre", "Type": "Health Centre", "Town": "Kwamang", "Ownership": "Government", "latitude": 6.98188, "longitude": -1.26961, "index_right": 1.0, "NAME_1": "Ashanti", "x_utm": 691159.10888995603, "y_utm": 772096.72558436624 }, "geometry": { "type": "Point", "coordinates": [ 691159.108889956027269, 772096.725584366242401 ] } },
{ "type": "Feature", "properties": { "OBJECTID": 184, "Region": "Ashanti", "District": "Ejisu-Juaben Municipal", "FacilityNa": "Kwaso Health Centre", "Type": "Health Centre", "Town": "Kwaso", "Ownership": "Government", "latitude": 6.62771, "longitude": -1.44722, "index_right": 1.0, "NAME_1": "Ashanti", "x_utm": 671659.06765534938, "y_utm": 732862.33613110625 }, "geometry": { "type": "Point", "coordinates": [ 671659.067655349383131, 732862.336131106247194 ] } },
{ "type": "Feature", "properties": { "OBJECTID": 185, "Region": "Ashanti", "District": "Afigya-Kwabre", "FacilityNa": "Kyekyewere Health Centre", "Type": "Health Centre", "Town": "Kyekyewere", "Ownership": "Government", "latitude": 7.14538, "longitude": -1.63944, "index_right": 1.0, "NAME_1": "Ashanti", "x_utm": 650242.0355235039, "y_utm": 790042.08950861788 }, "geometry": { "type": "Point", "coordinates": [ 650242.035523503902368, 790042.089508617878892 ] } },
{ "type": "Feature", "properties": { "OBJECTID": 186, "Region": "Ashanti", "District": "Asante-Akim North Municipal", "FacilityNa": "Life Land Clinic", "Type": "Clinic", "Town": "Abosomtweagya", "Ownership": "Private", "latitude": 6.62067, "longitude": -1.20373, "index_right": 1.0, "NAME_1": "Ashanti", "x_utm": 698587.64303546422, "y_utm": 732174.57805919566 }, "geometry": { "type": "Point", "coordinates": [ 698587.643035464221612, 732174.578059195657261 ] } },
{ "type": "Feature", "properties": { "OBJECTID": 187, "Region": "Ashanti", "District": "Atwima-Nwabiagya", "FacilityNa": "Maakro Clinic", "Type": "Clinic", "Town": "Maakro", "Ownership": "Private", "latitude": 7.0, "longitude": -2.0, "index_right": 1.0, "NAME_1": "Ashanti", "x_utm": 610456.50533668301, "y_utm": 773866.34643519449 }, "geometry": { "type": "Point", "coordinates": [ 610456.505336683010682, 773866.346435194485821 ] } },
{ "type": "Feature", "properties": { "OBJECTID": 188, "Region": "Ashanti", "District": "Ahafo-Ano North", "FacilityNa": "Matang Clinic", "Type": "Clinic", "Town": "Matang", "Ownership": "Private", "latitude": 6.99615, "longitude": -2.21651, "index_right": 1.0, "NAME_1": "Ashanti", "x_utm": 586540.61914748524, "y_utm": 773395.33554662194 }, "geometry": { "type": "Point", "coordinates": [ 586540.6191474852385, 773395.335546621936373 ] } },
{ "type": "Feature", "properties": { "OBJECTID": 189, "Region": "Ashanti", "District": "Ejisu-Juaben Municipal", "FacilityNa": "Madoma Maternity Clinic", "Type": "Clinic", "Town": "Besease", "Ownership": "CHAG", "latitude": 6.72093, "longitude": -1.45015, "index_right": 1.0, "NAME_1": "Ashanti", "x_utm": 671302.66249068617, "y_utm": 743170.02618466062 }, "geometry": { "type": "Point", "coordinates": [ 671302.662490686168894, 743170.026184660615399 ] } },
{ "type": "Feature", "properties": { "OBJECTID": 190, "Region": "Ashanti", "District": "Ejisu-Juaben Municipal", "FacilityNa": "Mama Tina Maternity Home", "Type": "Maternity Home", "Town": "Kwamo", "Ownership": "Private", "latitude": 6.71524, "longitude": -1.50509, "index_right": 1.0, "NAME_1": "Ashanti", "x_utm": 665230.77097823133, "y_utm": 742521.92215462879 }, "geometry": { "type": "Point", "coordinates": [ 665230.770978231332265, 742521.922154628788121 ] } },
{ "type": "Feature", "properties": { "OBJECTID": 191, "Region": "Ashanti", "District": "Mampong Municipal", "FacilityNa": "Mampong District Hospital", "Type": "District Hospital", "Town": "Mampong", "Ownership": "Government", "latitude": 7.04563, "longitude": -1.40219, "index_right": 1.0, "NAME_1": "Ashanti", "x_utm": 676484.89462528797, "y_utm": 779095.01168250537 }, "geometry": { "type": "Point", "coordinates": [ 676484.894625287968665, 779095.011682505370118 ] } },
{ "type": "Feature", "properties": { "OBJECTID": 192, "Region": "Ashanti", "District": "Mampong Municipal", "FacilityNa": "Mampong Quality Hospital", "Type": "Hospital", "Town": "Mampong", "Ownership": "Private", "latitude": 7.04621, "longitude": -1.40195, "index_right": 1.0, "NAME_1": "Ashanti", "x_utm": 676511.19085343182, "y_utm": 779159.24388671922 }, "geometry": { "type": "Point", "coordinates": [ 676511.190853431820869, 779159.243886719224975 ] } },
{ "type": "Feature", "properties": { "OBJECTID": 193, "Region": "Ashanti", "District": "Kwabre", "FacilityNa": "Mamponteng Health Centre", "Type": "Health Centre", "Town": "Mamponteng", "Ownership": "Government", "latitude": 6.83295, "longitude": -1.47695, "index_right": 1.0, "NAME_1": "Ashanti", "x_utm": 668300.94124845392, "y_utm": 755548.31579466781 }, "geometry": { "type": "Point", "coordinates": [ 668300.941248453920707, 755548.315794667811133 ] } },
{ "type": "Feature", "properties": { "OBJECTID": 194, "Region": "Ashanti", "District": "Ahafo-Ano North", "FacilityNa": "Manfo Health Centre", "Type": "Health Centre", "Town": "Manfo", "Ownership": "Government", "latitude": 6.94531, "longitude": -2.23044, "index_right": 1.0, "NAME_1": "Ashanti", "x_utm": 585011.04827665968, "y_utm": 767772.12115931092 }, "geometry": { "type": "Point", "coordinates": [ 585011.048276659683324, 767772.121159310918301 ] } },
{ "type": "Feature", "properties": { "OBJECTID": 195, "Region": "Ashanti", "District": "Ahafo-Ano South", "FacilityNa": "Mankranso Hospital", "Type": "Hospital", "Town": "Mankranso", "Ownership": "Government", "latitude": 6.82076, "longitude": -1.86278, "index_right": 1.0, "NAME_1": "Ashanti", "x_utm": 625662.50757709192, "y_utm": 754082.70363419468 }, "geometry": { "type": "Point", "coordinates": [ 625662.507577091921121, 754082.70363419468049 ] } },
{ "type": "Feature", "properties": { "OBJECTID": 196, "Region": "Ashanti", "District": "Amansie West", "FacilityNa": "Manso Abore Health Centre", "Type": "Health Centre", "Town": "Manso Abore", "Ownership": "Government", "latitude": 6.44627, "longitude": -1.97764, "index_right": 1.0, "NAME_1": "Ashanti", "x_utm": 613054.47021871922, "y_utm": 712649.88562933786 }, "geometry": { "type": "Point", "coordinates": [ 613054.470218719216064, 712649.885629337863065 ] } },
{ "type": "Feature", "properties": { "OBJECTID": 197, "Region": "Ashanti", "District": "Amansie West", "FacilityNa": "Manso Edubia Health Centre", "Type": "Health Centre", "Town": "Manso-Adubia", "Ownership": "Government", "latitude": 6.40256, "longitude": -1.92957, "index_right": 1.0, "NAME_1": "Ashanti", "x_utm": 618380.83722535253, "y_utm": 707828.08386473614 }, "geometry": { "type": "Point", "coordinates": [ 618380.837225352530368, 707828.083864736137912 ] } },
{ "type": "Feature", "properties": { "OBJECTID": 198, "Region": "Ashanti", "District": "Amansie West", "FacilityNa": "Manso Nkwanta Maternity Home", "Type": "Maternity Home", "Town": "Manso Nkwanta", "Ownership": "Private", "latitude": 6.47682, "longitude": -1.87916, "index_right": 1.0, "NAME_1": "Ashanti", "x_utm": 623938.43829206121, "y_utm": 716050.51474074763 }, "geometry": { "type": "Point", "coordinates": [ 623938.438292061211541, 716050.514740747632459 ] } },
{ "type": "Feature", "properties": { "OBJECTID": 199, "Region": "Ashanti", "District": "Amansie West", "FacilityNa": "Manso Tontokrom Health Centre", "Type": "Health Centre", "Town": "Tontokrom", "Ownership": "Government", "latitude": 6.24929, "longitude": -1.99483, "index_right": 1.0, "NAME_1": "Ashanti", "x_utm": 611195.62182694487, "y_utm": 690867.93583343725 }, "geometry": { "type": "Point", "coordinates": [ 611195.621826944872737, 690867.935833437251858 ] } },
{ "type": "Feature", "properties": { "OBJECTID": 200, "Region": "Ashanti", "District": "Adansi South", "FacilityNa": "Mansonso Health Centre", "Type": "Health Centre", "Town": "Mansonso", "Ownership": "Government", "latitude": 6.04547, "longitude": -1.58955, "index_right": 1.0, "NAME_1": "Ashanti", "x_utm": 656096.24202587851, "y_utm": 668433.3030876863 }, "geometry": { "type": "Point", "coordinates": [ 656096.242025878513232, 668433.303087686304934 ] } },
{ "type": "Feature", "properties": { "OBJECTID": 201, "Region": "Ashanti", "District": "Amansie Central", "FacilityNa": "Marben Maternity", "Type": "Maternity Home", "Town": "Jacobu", "Ownership": "Private", "latitude": 6.35241, "longitude": -1.67799, "index_right": 1.0, "NAME_1": "Ashanti", "x_utm": 646222.13692974288, "y_utm": 702347.66198040859 }, "geometry": { "type": "Point", "coordinates": [ 646222.136929742875509, 702347.661980408593081 ] } },
{ "type": "Feature", "properties": { "OBJECTID": 202, "Region": "Ashanti", "District": "Kwabre", "FacilityNa": "Meduma Clinic", "Type": "Clinic", "Town": "Medoma", "Ownership": "Private", "latitude": 6.79089, "longitude": -1.56091, "index_right": 1.0, "NAME_1": "Ashanti", "x_utm": 659035.03958624112, "y_utm": 750868.78399430786 }, "geometry": { "type": "Point", "coordinates": [ 659035.039586241124198, 750868.783994307857938 ] } },
{ "type": "Feature", "properties": { "OBJECTID": 203, "Region": "Ashanti", "District": "Ejisu-Juaben Municipal", "FacilityNa": "Memorial Maternity Home", "Type": "Maternity Home", "Town": "Okyerekrom", "Ownership": "Private", "latitude": 6.72122, "longitude": -1.52589, "index_right": 1.0, "NAME_1": "Ashanti", "x_utm": 662929.27856889309, "y_utm": 743176.22849699471 }, "geometry": { "type": "Point", "coordinates": [ 662929.278568893088959, 743176.228496994706802 ] } },
{ "type": "Feature", "properties": { "OBJECTID": 204, "Region": "Ashanti", "District": "Afigya-Kwabre", "FacilityNa": "Methodist Faith Healing Hospital", "Type": "District Hospital", "Town": "Ankaase", "Ownership": "CHAG", "latitude": 6.84819, "longitude": -1.54934, "index_right": 1.0, "NAME_1": "Ashanti", "x_utm": 660294.8627237503, "y_utm": 757208.85359162872 }, "geometry": { "type": "Point", "coordinates": [ 660294.862723750295117, 757208.853591628721915 ] } },
{ "type": "Feature", "properties": { "OBJECTID": 205, "Region": "Ashanti", "District": "Amansie Central", "FacilityNa": "Mile 14 Community Clinic", "Type": "Clinic", "Town": "Mile 14", "Ownership": "Government", "latitude": 6.22126, "longitude": -1.82139, "index_right": 1.0, "NAME_1": "Ashanti", "x_utm": 630391.58560365031, "y_utm": 687808.57875153318 }, "geometry": { "type": "Point", "coordinates": [ 630391.585603650310077, 687808.578751533175819 ] } },
{ "type": "Feature", "properties": { "OBJECTID": 206, "Region": "Ashanti", "District": "Asante-Akim South", "FacilityNa": "Morso Clinic", "Type": "Clinic", "Town": "Morso", "Ownership": "Government", "latitude": 6.65518, "longitude": -1.10681, "index_right": 1.0, "NAME_1": "Ashanti", "x_utm": 709291.82889328734, "y_utm": 736031.32672881207 }, "geometry": { "type": "Point", "coordinates": [ 709291.828893287340179, 736031.326728812069632 ] } },
{ "type": "Feature", "properties": { "OBJECTID": 207, "Region": "Ashanti", "District": "Amansie West", "FacilityNa": "Mother of God Clinic", "Type": "Clinic", "Town": "Esaase", "Ownership": "CHAG", "latitude": 6.55942, "longitude": -1.89046, "index_right": 1.0, "NAME_1": "Ashanti", "x_utm": 622668.692411575, "y_utm": 725180.41348933952 }, "geometry": { "type": "Point", "coordinates": [ 622668.692411575000733, 725180.413489339523949 ] } },
{ "type": "Feature", "properties": { "OBJECTID": 208, "Region": "Ashanti", "District": "Ahafo-Ano South", "FacilityNa": "Mpasaso Health Centre", "Type": "Health Centre", "Town": "Mpasaso", "Ownership": "Government", "latitude": 6.80274, "longitude": -2.13864, "index_right": 1.0, "NAME_1": "Ashanti", "x_utm": 595180.99691351235, "y_utm": 752027.2986346035 }, "geometry": { "type": "Point", "coordinates": [ 595180.996913512353785, 752027.29863460350316 ] } },
{ "type": "Feature", "properties": { "OBJECTID": 209, "Region": "Ashanti", "District": "Amansie West", "FacilityNa": "Mpatuom RCH", "Type": "RCH", "Town": "Mpatuom", "Ownership": "Government", "latitude": 6.54088, "longitude": -1.93215, "index_right": 1.0, "NAME_1": "Ashanti", "x_utm": 618063.3480624659, "y_utm": 723120.56257142627 }, "geometry": { "type": "Point", "coordinates": [ 618063.348062465898693, 723120.562571426271461 ] } },
{ "type": "Feature", "properties": { "OBJECTID": 210, "Region": "Ashanti", "District": "Afigya-Kwabre", "FacilityNa": "Mpobi RCH", "Type": "RCH", "Town": "Mpobi", "Ownership": "Government", "latitude": 6.84775, "longitude": -1.56165, "index_right": 1.0, "NAME_1": "Ashanti", "x_utm": 658934.49868084479, "y_utm": 757156.10761087795 }, "geometry": { "type": "Point", "coordinates": [ 658934.498680844786577, 757156.107610877952538 ] } },
{ "type": "Feature", "properties": { "OBJECTID": 211, "Region": "Ashanti", "District": "Asante-Akim South", "FacilityNa": "Muranaim Health Centre", "Type": "Health Centre", "Town": "Muronam", "Ownership": "Government", "latitude": 6.24703, "longitude": -1.20566, "index_right": 1.0, "NAME_1": "Ashanti", "x_utm": 698519.26614456647, "y_utm": 690850.26437798084 }, "geometry": { "type": "Point", "coordinates": [ 698519.266144566470757, 690850.264377980842255 ] } },
{ "type": "Feature", "properties": { "OBJECTID": 212, "Region": "Ashanti", "District": "Mampong Municipal", "FacilityNa": "Nadaworoma Clinic", "Type": "Clinic", "Town": "Mampong New Town", "Ownership": "Private", "latitude": 7.06598, "longitude": -1.40213, "index_right": 1.0, "NAME_1": "Ashanti", "x_utm": 676483.81212988449, "y_utm": 781345.51604740252 }, "geometry": { "type": "Point", "coordinates": [ 676483.812129884492606, 781345.51604740251787 ] } },
{ "type": "Feature", "properties": { "OBJECTID": 213, "Region": "Ashanti", "District": "Atwima-Nwabiagya", "FacilityNa": "Nana Frema Maternity Home", "Type": "Maternity Home", "Town": "Adankwame", "Ownership": "Private", "latitude": 7.0, "longitude": -2.0, "index_right": 1.0, "NAME_1": "Ashanti", "x_utm": 610456.50533668301, "y_utm": 773866.34643519449 }, "geometry": { "type": "Point", "coordinates": [ 610456.505336683010682, 773866.346435194485821 ] } },
{ "type": "Feature", "properties": { "OBJECTID": 214, "Region": "Ashanti", "District": "Bekwai Municipal", "FacilityNa": "Nancy Powel's Clinic", "Type": "Clinic", "Town": "Tebeso #2", "Ownership": "CHAG", "latitude": 6.31788, "longitude": -1.30804, "index_right": 1.0, "NAME_1": "Ashanti", "x_utm": 687163.65198041708, "y_utm": 698648.09517292713 }, "geometry": { "type": "Point", "coordinates": [ 687163.651980417082086, 698648.095172927132808 ] } },
{ "type": "Feature", "properties": { "OBJECTID": 215, "Region": "Ashanti", "District": "Obuasi Municipal", "FacilityNa": "Neighbourhood    Clinic", "Type": "Clinic", "Town": "Abompe    New  Site", "Ownership": "Private", "latitude": 6.21889, "longitude": -1.67117, "index_right": 1.0, "NAME_1": "Ashanti", "x_utm": 647014.09705871809, "y_utm": 687585.94363945129 }, "geometry": { "type": "Point", "coordinates": [ 647014.09705871809274, 687585.943639451288618 ] } },
{ "type": "Feature", "properties": { "OBJECTID": 216, "Region": "Ashanti", "District": "Adansi North", "FacilityNa": "New Ayaasi Adom Maternity Home", "Type": "Health Centre", "Town": "New Ayaasi", "Ownership": "Private", "latitude": 6.29641, "longitude": -1.52338, "index_right": 1.0, "NAME_1": "Ashanti", "x_utm": 663344.02725300461, "y_utm": 696201.43392067845 }, "geometry": { "type": "Point", "coordinates": [ 663344.027253004605882, 696201.433920678449795 ] } },
{ "type": "Feature", "properties": { "OBJECTID": 217, "Region": "Ashanti", "District": "Adansi South", "FacilityNa": "New Edubiase Hospital", "Type": "District Hospital", "Town": "New Edubiase", "Ownership": "Government", "latitude": 6.05456, "longitude": -1.39281, "index_right": 1.0, "NAME_1": "Ashanti", "x_utm": 677872.00683460897, "y_utm": 669498.93857143272 }, "geometry": { "type": "Point", "coordinates": [ 677872.006834608968347, 669498.938571432721801 ] } },
{ "type": "Feature", "properties": { "OBJECTID": 218, "Region": "Ashanti", "District": "Bekwai Municipal", "FacilityNa": "New Life Clinic", "Type": "Clinic", "Town": "Apau", "Ownership": "CHAG", "latitude": 6.47284, "longitude": -1.43677, "index_right": 1.0, "NAME_1": "Ashanti", "x_utm": 672867.90677080769, "y_utm": 715739.6883707426 }, "geometry": { "type": "Point", "coordinates": [ 672867.906770807690918, 715739.688370742602274 ] } },
{ "type": "Feature", "properties": { "OBJECTID": 219, "Region": "Ashanti", "District": "Amansie West", "FacilityNa": "Nipankyeremia CHPS", "Type": "CHPS", "Town": "Nipankyeremia", "Ownership": "Government", "latitude": 6.37002, "longitude": -2.15827, "index_right": 1.0, "NAME_1": "Ashanti", "x_utm": 593092.33037512109, "y_utm": 704183.53589332337 }, "geometry": { "type": "Point", "coordinates": [ 593092.330375121091492, 704183.535893323365599 ] } },
{ "type": "Feature", "properties": { "OBJECTID": 220, "Region": "Ashanti", "District": "Atwima-Nwabiagya", "FacilityNa": "Nkawie/Toase Hospital", "Type": "Hospital", "Town": "Nkawie", "Ownership": "Government", "latitude": 7.0, "longitude": -2.0, "index_right": 1.0, "NAME_1": "Ashanti", "x_utm": 610456.50533668301, "y_utm": 773866.34643519449 }, "geometry": { "type": "Point", "coordinates": [ 610456.505336683010682, 773866.346435194485821 ] } },
{ "type": "Feature", "properties": { "OBJECTID": 221, "Region": "Ashanti", "District": "Offinso North", "FacilityNa": "Nkenkasu District Hospital", "Type": "District Hospital", "Town": "Nkenkasu", "Ownership": "Government", "latitude": 7.31957, "longitude": -1.90289, "index_right": 1.0, "NAME_1": "Ashanti", "x_utm": 621099.82338287774, "y_utm": 809224.19181393133 }, "geometry": { "type": "Point", "coordinates": [ 621099.823382877744734, 809224.191813931334764 ] } },
{ "type": "Feature", "properties": { "OBJECTID": 222, "Region": "Ashanti", "District": "Ejura Sekyeredumasi", "FacilityNa": "Nkwanta Community Clinic", "Type": "Clinic", "Town": "Ejura Nkwanta", "Ownership": "Government", "latitude": 7.51378, "longitude": -1.34725, "index_right": 1.0, "NAME_1": "Ashanti", "x_utm": 682365.57207145123, "y_utm": 830890.11254919902 }, "geometry": { "type": "Point", "coordinates": [ 682365.572071451228112, 830890.112549199024215 ] } },